     2.10           OBSERVATION DATA    M (MIXED)           RINEX VERSION / TYPE
LoggerServer.exe    NIST                24-May-21 23:59     PGM / RUN BY / DATE
The reference is antenna ARP only, mounted on a forced      COMMENT
centering threaded rod that is bolted to a metal tower.     COMMENT
The tower sits on the roof of NIST Building 1.              COMMENT
Signal Strengh values S1,S2 are in dBHz                     COMMENT
NIST                                                        MARKER NAME
49507M002                                                   MARKER NUMBER
NIST                NIST                                    OBSERVER / AGENCY
SWU04029169         NOV OEM4-G2         2.200-L1L2W         REC # / TYPE / VERS
04230007            NOV702          NONE                    ANT # / TYPE
 -1288349.1490 -4721661.0480  4078676.0170                  APPROX POSITION XYZ
        0.0000        0.0000        0.0000                  ANTENNA: DELTA H/E/N
     1     1                                                WAVELENGTH FACT L1/2
     8    C1    L1    D1    S1    P2    L2    D2    S2      # / TYPES OF OBSERV
  2021     5    25     0     0    0.0000000     GPS         TIME OF FIRST OBS
                                                            END OF HEADER
 21  5 25  0  0  0.0000000  0 11G 2G 5G13G15G16G18G20G23G25G26G29
  24948323.30446 131104337.11246     -2313.77746        41.488    24948323.31342
 102159240.15542     -1802.94542        32.289
  21118770.22849 110979983.38849     -2230.43849        48.251    21118769.46146
  86477957.07746     -1738.00846        41.973
  22391130.95147 117666224.54547      1645.00047        44.764    22391131.51143
  91687995.97043      1281.81643        36.345
  22035384.24248 115796782.15848      2890.36748        45.688    22035384.43545
  90231308.59845      2252.23045        40.301
  24957923.21745 131154773.62645      2232.77745        38.980    24957922.79741
 102198537.95541      1739.83241        29.475
  21776395.59448 114435771.45848      2004.16448        46.134    21776396.62945
  89170747.15545      1561.68445        40.389
  20206998.19449 106188571.61349      -736.93849        48.066    20206996.94047
  82744381.50447      -574.23847        44.650
  23096618.24847 121373582.87947      3121.19547        44.006    23096620.84444
  94576839.92044      2432.09844        37.950
  24038919.45046 126325344.89846     -3383.88746        41.740    24038922.66643
  98435378.71143     -2636.79743        35.908
  23867968.82045 125427009.25045       636.65245        40.762    23867972.60643
  97735360.70343       496.09043        35.090
  20250622.56249 106417797.08249       -69.18449        49.870    20250622.30648
  82922972.33448       -53.91448        46.863
 21  5 25  0  0 30.0000000  0 11G 2G 5G13G15G16G18G20G23G25G26G29
  24961539.75245 131173788.75845     -2316.17645        40.186    24961539.53842
 102213358.27842     -1804.97742        34.347
  21131536.66949 111047071.44949     -2242.04749        48.153    21131535.91346
  86530233.48746     -1747.05146        42.345
  22381788.61547 117617128.75147      1628.14847        45.348    22381788.83244
  91649739.54344      1268.68444        36.959
  22018918.28248 115710254.16148      2878.18048        46.337    22018918.48345
  90163884.23845      2242.73445        39.927
  24945219.99045 131088015.78245      2217.76245        38.994    24945219.18841
 102146518.78541      1728.12141        28.955
  21764968.96948 114375723.99448      1999.02048        46.037    21764969.68745
  89123956.94245      1557.67645        40.074
  20211243.23149 106210879.26049      -750.34049        48.098    20211241.98247
  82761764.09047      -584.68447        44.613
  23078822.30547 121280064.29847      3113.37147        43.363    23078824.83944
  94503968.36444      2426.00044        37.092
  24058241.47345 126426881.22745     -3384.94145        41.090    24058244.33544
  98514497.87044     -2637.62544        37.768
  23864385.27145 125408178.11745       618.62145        40.709    23864388.89644
  97720687.09144       482.03944        36.965
  20251068.37749 106420139.48949       -86.94149        50.045    20251068.06748
  82924797.59548       -67.75048        46.593
 21  5 25  0  1  0.0000000  0 11G 2G 5G13G15G16G18G20G23G25G26G29
  24974768.65845 131243308.20645     -2318.23845        39.365    24974768.85943
 102267529.21843     -1806.42243        35.710
  21144369.19649 111114506.34749     -2253.57849        48.292    21144368.38146
  86582780.16446     -1756.03946        42.466
  22372541.32347 117568533.24247      1611.41447        45.268    22372541.30743
  91611872.95843      1255.64543        36.297
  22002522.29048 115624092.85148      2866.00048        45.849    22002522.58645
  90096745.58245      2233.24245        39.851
  24932601.57143 131021707.89243      2203.09043        34.808    24932601.00443
 102094850.34943      1716.69143        34.850
  21753571.65248 114315831.70448      1993.68848        46.270    21753572.52345
  89077287.65845      1553.58645        40.277
  20215565.30949 106233591.94249      -763.79349        47.983    20215564.16047
  82779462.29147      -595.16847        44.648
  23061071.95946 121186784.62246      3105.22746        43.164    23061073.78044
  94431282.94844      2419.65244        38.684
  24077570.99845 126528458.68045     -3386.27345        40.191    24077574.33641
  98593649.03341     -2638.65641        32.206
  23860903.55445 125389881.74545       601.09045        40.855    23860906.97143
  97706430.17143       468.37943        36.243
  20251615.25249 106423013.23949      -104.73049        49.993    20251614.80548
  82927036.87748       -81.61348        46.557
 21  5 25  0  1 30.0000000  0 11G 2G 5G13G15G16G18G20G23G25G26G29
  24988011.17546 131312895.39546     -2320.48446        41.551    24988010.50843
 102321752.97243     -1808.17243        36.003
  21157267.21049 111182285.94949     -2264.97349        48.153    21157266.53246
  86635595.43246     -1764.91846        42.273
  22363389.52247 117520440.39647      1594.80947        44.962    22363389.79644
  91574398.03344      1242.70344        36.838
  21986196.53848 115538301.39148      2853.58648        46.021    21986196.98345
  90029895.14545      2223.57045        39.598
  24920069.46444 130955850.90344      2187.54744        37.389    24920070.50243
 102043503.99743      1704.57843        35.612
  21742204.25548 114256094.95548      1988.71948        46.547    21742205.06545
  89030739.56745      1549.64845        40.051
  20219964.06048 106256708.41148      -777.20748        47.747    20219963.24647
  82797475.13047      -605.61747        44.885
  23043367.16046 121093745.10946      3097.27346        42.992    23043368.92844
  94358784.69144      2413.45744        38.273
  24096907.55045 126630074.13145     -3387.78545        40.853    24096911.22341
  98672829.83941     -2639.83641        30.662
  23857523.71046 125372120.33146       583.15246        41.434    23857527.38943
  97692590.12943       454.40243        36.628
  20252263.44149 106426419.31649      -122.35549        49.918    20252262.89848
  82929690.96448       -95.34448        46.532
 21  5 25  0  2  0.0000000  0 11G 2G 5G13G15G16G18G20G23G25G26G29
  25001265.61444 131382550.82944     -2323.07044        37.852    25001265.55343
 102376029.84543     -1810.19143        35.668
  21170230.25349 111250407.49449     -2276.43849        47.862    21170229.79746
  86688677.14946     -1773.85246        42.687
  22354333.71047 117472852.75047      1577.86347        44.315    22354334.14443
  91537316.77643      1229.50043        36.610
  21969941.70648 115452882.87748      2841.05948        45.712    21969942.23945
  89963335.30845      2213.80945        41.103
  24907624.28844 130890449.03844      2171.96544        37.863    24907623.28043
 101992541.49543      1692.43843        35.170
  21730866.45048 114196514.22248      1983.42248        46.400    21730867.10145
  88984313.05645      1545.52045        40.150
  20224439.48049 106280227.59349      -790.67649        48.134    20224438.96047
  82815801.76447      -616.11347        44.535
  23025708.27146 121000947.14646      3089.09046        42.698    23025710.23244
  94286474.64644      2407.07844        36.826
  24116251.01145 126731724.70645     -3389.05545        40.323    24116254.86041
  98752038.01441     -2640.82441        29.192
  23854245.53945 125354894.08245       565.39545        40.980    23854249.54143
  97679167.06443       440.56243        36.646
  20253012.99949 106430358.42149      -140.26649        49.993    20253012.54748
  82932760.40448      -109.30148        46.616
 21  5 25  0  2 30.0000000  0 11G 2G 5G13G15G16G18G20G23G25G26G29
  25014533.19344 131452274.26144     -2325.63744        38.518    25014533.72142
 102430359.73742     -1812.18842        33.270
  21183257.99249 111318869.03749     -2287.66449        47.823    21183257.76046
  86742023.79146     -1782.59846        42.849
  22345374.67648 117425772.78548      1560.96148        45.781    22345374.96343
  91500631.11743      1216.32843        34.638
  21953758.43547 115367840.35147      2828.65247        45.490    21953759.18445
  89897068.46145      2204.14145        40.313
  24895265.34443 130825503.42243      2157.51243        36.277    24895265.58541
 101941934.55641      1681.18441        25.160
  21719558.50348 114137089.97548      1978.16448        46.734    21719559.06045
  88938008.47545      1541.42245        40.361
  20228991.37249 106304148.13449      -803.93049        47.863    20228991.05847
  82834441.14947      -626.44147        44.969
  23008095.51147 120908391.94747      3081.08647        43.755    23008097.28343
  94214353.77143      2400.84443        35.843
  24135600.66045 126833407.44845     -3389.73045        39.940    24135604.45443
  98831271.24543     -2641.35243        35.950
  23851069.31045 125338203.17045       547.62945        41.054    23851073.33143
  97666161.16143       426.71943        36.198
  20253864.16149 106434831.63849      -157.98849        49.831    20253863.94948
  82936246.02148      -123.10948        46.731
 21  5 25  0  3  0.0000000  0 11G 2G 5G13G15G16G18G20G23G25G26G29
  25027814.36245 131522066.02945     -2327.50845        40.359    25027814.42643
 102484742.88543     -1813.64543        34.663
  21196350.15249 111387668.01049     -2298.85549        48.239    21196349.85546
  86795633.37446     -1791.32046        42.390
  22336512.78348 117379202.61248      1543.71148        45.844    22336512.72643
  91464342.67243      1202.88743        36.437
  21937647.35547 115283176.99747      2815.76247        45.397    21937648.01945
  89831097.05645      2194.09845        40.893
  24882994.04444 130761016.18844      2142.34044        38.163    24882994.62041
 101891684.81241      1669.35941        30.570
  21708280.38148 114077822.64648      1972.95748        46.724    21708280.79245
  88891826.16645      1537.36745        40.281
  20233619.35249 106328468.53449      -817.36749        47.920    20233619.13847
  82853392.10647      -636.91447        45.268
  22990529.39347 120816080.89847      3072.93047        43.533    22990530.69444
  94142423.11444      2394.48844        36.955
  24154955.69345 126935119.44245     -3390.83245        40.023    24154959.69542
  98910527.26242     -2642.21142        32.988
  23847994.84845 125322047.70345       529.79745        41.109    23847999.15143
  97653572.50543       412.82443        35.905
  20254817.01849 106439839.47849      -175.80949        49.850    20254817.05848
  82940148.22848      -136.99648        46.729
 21  5 25  0  3 30.0000000  0 10G 2G 5G13G15G18G20G23G25G26G29
  25041108.01444 131591926.42344     -2329.63344        38.375    25041107.84943
 102539179.54843     -1815.30143        35.920
  21209505.88249 111456802.12849     -2310.05549        47.788    21209505.64446
  86849504.10246     -1800.04746        42.632
  22327748.20247 117333144.62947      1526.71547        45.021    22327748.11643
  91428453.36743      1189.64543        35.687
  21921609.31248 115198895.98448      2803.02348        46.055    21921610.01645
  89765423.58745      2184.17245        40.855
  21697032.06848 114018712.69648      1967.69948        46.717    21697032.50845
  88845766.48145      1533.27045        40.703
  20238323.21749 106353187.46749      -830.64849        47.888    20238322.99547
  82872653.61547      -647.26247        44.383
  22973009.80146 120724015.26446      3065.02046        43.243    22973011.48944
  94070683.71844      2388.32844        36.731
  24174315.78645 127036857.72745     -3391.62545        39.946    24174320.01042
  98989803.76342     -2642.82842        34.176
  23845022.80046 125306427.87846       511.96546        41.301    23845026.75844
  97641401.19744       398.93044        36.762
  20255871.87149 106445382.78249      -193.73049        49.899    20255871.97248
  82944467.68148      -150.96148        46.428
 21  5 25  0  4  0.0000000  0 11G 2G 5G13G15G16G18G20G23G25G26G29
  25054415.04544 131661855.44944     -2332.11344        38.320    25054415.14242
 102593669.56242     -1817.01642        34.083
  21222724.77448 111526268.79048     -2321.10248        47.383    21222724.67946
  86903633.95046     -1808.65246        42.345
  22319081.41847 117287601.05847      1509.33647        44.874    22319081.20943
  91392964.91043      1176.10243        36.297
  21905644.89448 115115000.84248      2790.00048        46.338    21905645.18246
  89700050.78146      2174.02346        41.139
  24858712.24744 130633409.91944      2111.22744        37.149    24858712.47141
 101792279.08141      1645.10941        26.198
  21685813.72048 113959760.56348      1962.51648        46.383    21685814.44146
  88799829.78746      1529.23046        41.182
  20243102.62149 106378303.48949      -843.71549        48.004    20243102.38947
  82892224.54547      -657.44147        44.643
  22955536.67946 120632196.28446      3056.44546        43.275    22955539.05444
  93999136.52944      2381.64144        37.570
  24193680.52945 127138619.36145     -3392.56245        40.016    24193685.31143
  99069098.45543     -2643.55943        35.532
  23842152.52246 125291343.67046       493.91046        41.178    23842156.59044
  97629647.28244       384.86344        37.395
  20257028.70949 106451461.95549      -211.57449        49.864    20257028.79148
  82949204.69348      -164.86748        46.639
 21  5 25  0  4 30.0000000  0 11G 2G 5G13G15G16G18G20G23G25G26G29
  25067735.46845 131731853.15645     -2334.37145        39.868    25067734.57142
 102648213.18042     -1818.99242        32.342
  21236006.53448 111596065.74648     -2332.02348        47.661    21236006.57746
  86958021.16646     -1817.16446        42.342
  22310513.13947 117242574.12747      1492.28547        45.277    22310513.02544
  91357879.00844      1162.81644        36.817
  21889754.22548 115031493.96848      2777.12548        45.992    21889754.27945
  89634980.51145      2163.99245        40.096
  24846705.86744 130570310.07744      2095.48444        38.232    24846706.01241
 101743110.36141      1632.84041        15.515
  21674625.64648 113900966.76048      1957.11748        46.576    21674625.99245
  88754016.44645      1525.02345        40.282
  20247957.38649 106403815.34949      -857.15249        48.095    20247957.00747
  82912103.91647      -667.91447        44.934
  22938111.28147 120540625.29347      3048.00447        43.408    22938113.81544
  93927782.58944      2375.06644        37.883
  24213049.12745 127240401.44045     -3393.38345        39.958    24213053.89643
  99148409.08743     -2644.19943        35.060
  23839384.38446 125276795.22746       476.10246        41.698    23839387.74943
  97618310.81143       370.98443        35.503
  20258287.80149 106458077.96449      -229.48449        50.052    20258287.56048
  82954360.01748      -178.82048        46.434
 21  5 25  0  5  0.0000000  0 11G 2G 5G13G15G16G18G20G23G25G26G29
  25081068.68345 131801919.55245     -2336.71145        40.435    25081067.60442
 102702810.36842     -1820.98842        32.953
  21249350.96249 111666191.10149     -2342.94549        48.131    21249350.88846
  87012664.28746     -1825.67646        42.109
  22302043.51447 117198066.12847      1474.92247        45.056    22302043.62644
  91323197.46944      1149.28544        37.013
  21873937.68348 114948378.52648      2763.93848        45.952    21873938.08245
  89570215.27545      2153.71545        40.400
  24834786.90743 130507676.75543      2079.98843        36.441    24834786.95941
 101694305.21141      1620.76641        27.852
  21663467.87848 113842331.72148      1951.85548        46.734    21663467.99345
  88708326.82345      1520.92245        40.173
  20252887.09149 106429721.50849      -869.98449        47.794    20252886.79247
  82932290.53447      -677.91447        44.921
  22920733.50147 120449303.55247      3040.03147        44.126    22920735.55143
  93856622.83843      2368.85243        35.876
  24232420.83045 127342201.06345     -3393.43445        40.326    24232425.68743
  99227733.33643     -2644.24243        36.008
  23836717.64645 125262782.60045       458.33645        40.895    23836721.32944
  97607391.87444       357.14144        36.839
  20259649.15249 106465231.49449      -247.39149        49.852    20259648.69048
  82959934.19348      -192.77348        46.620
 21  5 25  0  5 30.0000000  0 11G 2G 5G13G15G16G18G20G23G25G26G29
  25094415.09845 131872054.95545     -2338.80945        39.214    25094414.37842
 102757461.21242     -1822.45342        33.009
  21262757.60749 111736642.25149     -2353.80949        47.993    21262757.15246
  87067561.28146     -1834.14146        42.316
  22293673.00647 117154079.57547      1457.39847        44.800    22293673.48243
  91288922.25343      1135.63343        34.724
  21858196.46148 114865657.85248      2750.69948        46.386    21858196.94445
  89505757.64845      2143.39845        40.417
  24822957.26044 130445512.09644      2065.05544        37.598    24822958.19543
 101645865.22343      1609.12543        35.546
  21652340.15648 113783855.95948      1946.52348        46.604    21652340.41045
  88662761.32245      1516.77045        39.588
  20257891.66249 106456020.73349      -883.20749        47.981    20257891.35747
  82952783.42947      -688.21547        44.661
  22903403.31747 120358232.34847      3031.48847        44.130    22903404.88143
  93785658.29843      2362.19543        36.576
  24251795.41445 127444015.33045     -3394.13345        39.222    24251800.30443
  99307069.04943     -2644.78143        35.009
  23834152.91645 125249305.81345       440.27345        40.049    23834156.73044
  97596890.44744       343.06644        37.698
  20261112.86449 106472923.08249      -265.40649        49.973    20261112.32448
  82965927.63948      -206.81248        46.447
 21  5 25  0  6  0.0000000  0 11G 2G 5G13G15G16G18G20G23G25G26G29
  25107774.67544 131942259.71644     -2341.42644        38.022    25107774.11542
 102812166.13542     -1824.49642        32.511
  21276225.65249 111807416.83249     -2364.53949        48.091    21276225.22446
  87122710.28546     -1842.50046        42.397
  22285401.93647 117110616.24047      1439.92647        44.908    22285402.89243
  91255054.77343      1122.01643        36.586
  21842531.11948 114783334.98148      2737.36348        46.644    21842531.42745
  89441609.98945      2133.00845        40.637
  24811217.35944 130383817.99444      2048.54744        37.761    24811218.77441
 101597792.00041      1596.26641        31.114
  21641243.00348 113725539.93648      1941.18048        46.820    21641243.18045
  88617320.26945      1512.60545        39.668
  20262970.86849 106482711.75949      -896.31249        48.263    20262970.51847
  82973581.62747      -698.43047        44.622
  22886120.86646 120267412.89646      3023.05546        43.083    22886122.21944
  93714889.95244      2355.62544        37.047
  24271172.23545 127545841.30045     -3394.28145        39.831    24271176.98442
  99386413.85842     -2644.89842        33.848
  23831690.25445 125236364.83745       422.41445        40.167    23831694.08345
  97586806.59345       329.15245        39.134
  20262679.06649 106481153.30549      -283.39149        49.965    20262678.59048
  82972340.80248      -220.82848        46.591
 21  5 25  0  6 30.0000000  0 11G 2G 5G13G15G16G18G20G23G25G26G29
  25121147.89444 132012533.70444     -2343.41444        38.847    25121147.22841
 102866925.08341     -1826.03941        29.647
  21289754.78149 111878512.04749     -2375.17249        47.957    21289754.22546
  87178109.15046     -1850.78546        42.626
  22277231.18547 117067678.69347      1422.34847        45.122    22277232.06944
  91221596.99144      1108.32044        37.104
  21826942.00148 114701413.03148      2724.00048        46.614    21826942.34945
  89377774.75145      2122.59445        40.653
  24799567.82344 130322596.60544      2032.70744        38.235    24799568.05243
 101550087.08143      1583.92643        35.494
  21630176.26648 113667384.12348      1935.60248        46.434    21630176.56145
  88572004.07745      1508.25845        40.398
  20268124.36149 106509792.83649      -909.14149        48.251    20268123.84047
  82994683.75947      -708.42647        44.320
  22868886.10246 120176846.43546      3014.67646        43.219    22868888.02044
  93644318.76544      2349.09444        36.954
  24290550.78944 127647676.07744     -3394.97744        38.738    24290555.29544
  99465765.56044     -2645.44144        36.763
  23829329.67646 125223959.67946       404.28146        41.190    23829333.52743
  97577140.22343       315.02043        34.525
  20264347.82749 106489922.89649      -301.35549        49.911    20264347.49548
  82979174.24248      -234.82448        46.437
 21  5 25  0  7  0.0000000  0 11G 2G 5G13G15G16G18G20G23G25G26G29
  25134533.95945 132082867.27645     -2346.11745        39.295    25134533.20243
 102921711.14243     -1828.14843        35.761
  21303344.52449 111949926.01049     -2385.96949        47.978    21303343.86046
  87233756.38346     -1859.19946        41.751
  22269161.03148 117025268.76548      1404.75448        45.665    22269161.65943
  91188550.33743      1094.60943        35.914
  21811429.75248 114619894.84248      2710.48048        46.772    21811430.11146
  89314254.13846      2112.05946        41.511
  24788008.22144 130261849.77044      2016.61744        38.012    24788007.77141
 101502751.83941      1571.37941        29.889
  21619140.02648 113609389.02048      1930.50448        46.620    21619140.64245
  88526813.10845      1504.28545        40.390
  20273351.86749 106537262.96849      -922.06249        48.116    20273351.10447
  83016089.06347      -718.49247        44.742
  22851700.06447 120086534.20947      3006.10247        43.582    22851702.16043
  93573945.66843      2342.41443        36.407
  24309930.34144 127749516.83144     -3394.69144        38.793    24309935.15243
  99545121.85443     -2645.22343        36.245
  23827070.92446 125212090.24146       386.87946        41.580    23827075.31344
  97567891.29844       301.46144        37.501
  20266119.37549 106499232.44049      -319.27749        49.847    20266119.08248
  82986428.42948      -248.78948        46.466
 21  5 25  0  7 30.0000000  0 11G 2G 5G13G15G16G18G20G23G25G26G29
  25147933.80745 132153280.20545     -2348.10945        39.965    25147934.02543
 102976578.28343     -1829.69943        34.800
  21316994.38548 112021656.66648     -2396.13348        47.660    21316993.71146
  87289650.39446     -1867.12146        42.576
  22261191.71847 116983388.76547      1387.04347        44.694    22261192.13543
  91155916.59143      1080.80943        36.599
  21795994.90848 114538783.86948      2696.83248        46.304    21795995.53846
  89251050.83946      2101.42646        41.329
  24776538.85344 130201579.48944      2000.93844        37.845    24776539.08541
 101455788.01241      1559.16441        28.480
  21608134.56748 113551555.12348      1925.08248        46.668    21608135.18345
  88481747.75945      1500.06245        40.754
  20278652.99649 106565120.77449      -935.04349        48.033    20278652.03647
  83037796.44547      -728.60947        44.828
  22834563.03447 119996477.56947      2997.56247        43.816    22834564.82645
  93503771.68445      2335.76245        39.061
  24329310.68845 127851360.62945     -3394.76245        39.974    24329315.29942
  99624480.61842     -2645.27342        33.568
  23824914.16645 125200756.49345       369.20345        40.622    23824918.85543
  97559059.80543       287.68843        35.345
  20267993.75449 106509082.42849      -337.39149        49.862    20267993.52848
  82994103.74048      -262.90648        46.271
 21  5 25  0  8  0.0000000  0 11G 2G 5G13G15G16G18G20G23G25G26G29
  25161346.94145 132223762.87445     -2350.55145        39.058    25161345.23643
 103031499.84843     -1831.60243        35.406
  21330703.84549 112093701.10349     -2406.67249        47.798    21330703.25046
  87345788.90346     -1875.33246        42.059
  22253323.30247 116942040.76347      1369.40647        45.405    22253323.55743
  91123697.39043      1067.06643        35.977
  21780637.99248 114458083.06048      2683.12148        46.783    21780638.47045
  89188167.11445      2090.74245        40.567
  24765161.12745 130141787.48645      1985.11345        39.106    24765161.36841
 101409196.84141      1546.84041        29.066
  21597160.08248 113493882.92648      1919.75448        47.096    21597160.40545
  88436808.38245      1495.91045        40.612
  20284027.58449 106593364.76049      -947.85949        48.059    20284026.54247
  83059804.75947      -738.59447        44.675
  22817474.71847 119906677.59447      2988.97747        43.742    22817476.72344
  93433797.75044      2329.07044        38.772
  24348691.13345 127953204.59745     -3394.95345        38.942    24348695.69543
  99703839.47143     -2645.42643        36.068
  23822859.26345 125189958.41845       351.19145        40.941    23822863.89543
  97550645.69843       273.65243        34.941
  20269971.11449 106519473.51249      -355.46549        49.929    20269970.86948
  83002200.68248      -276.98848        46.416
 21  5 25  0  8 30.0000000  0 11G 2G 5G13G15G16G18G20G23G25G26G29
  25174772.18744 132294315.53644     -2352.94944        38.839    25174769.75541
 103086475.86541     -1833.47341        29.290
  21344472.61848 112166057.18148     -2416.96948        47.559    21344472.18746
  87402170.25846     -1883.35546        42.644
  22245556.57847 116901226.77347      1351.59447        44.767    22245556.79944
  91091894.33544      1053.19144        37.808
  21765359.67648 114377795.16548      2669.29348        46.956    21765359.87546
  89125605.14346      2079.96546        41.171
  24753874.65545 130082475.72145      1969.01245        38.911    24753874.81841
 101362979.96141      1534.29341        29.334
  21586216.35548 113436372.95048      1914.23448        47.244    21586216.56145
  88391995.43245      1491.60945        40.560
  20289475.35849 106621993.31949      -960.72749        48.117    20289474.42947
  83082112.73547      -748.62147        44.211
  22800435.47847 119817135.55847      2980.66847        44.349    22800437.41544
  93364024.78444      2322.59444        38.552
  24368071.31845 128055045.85245     -3394.74645        40.656    24368075.70841
  99783196.19841     -2645.26241        31.884
  23820906.37146 125179695.78146       333.25046        41.948    23820910.98943
  97542648.84543       259.67243        35.312
  20272051.55849 106530406.19149      -373.41449        49.866    20272051.16048
  83010719.65648      -290.97748        46.217
 21  5 25  0  9  0.0000000  0 11G 2G 5G13G15G16G18G20G23G25G26G29
  25188210.80744 132364937.84344     -2355.05544        38.792    25188209.24541
 103141506.26441     -1835.10941        29.728
  21358300.41749 112238722.70249     -2427.31249        48.032    21358300.12346
  87458792.73246     -1891.41446        42.202
  22237892.29748 116860948.99448      1333.60948        45.838    22237892.22943
  91060509.06843      1039.17243        36.332
  21750160.46948 114297923.34448      2655.27048        46.674    21750160.54445
  89063367.38545      2069.03945        40.912
  24742679.29443 130023646.30843      1952.81643        36.061    24742680.59741
 101317138.89241      1521.67241        31.828
  21575303.68048 113379025.71048      1908.77048        47.164    21575303.79445
  88347309.27145      1487.35245        39.952
  20294996.06549 106651005.07849      -973.46549        48.093    20294995.14047
  83104719.31547      -758.54747        44.500
  22783445.46847 119727852.65347      2971.72747        43.866    22783447.31944
  93294453.76544      2315.63344        38.776
  24387450.33345 128156881.51345     -3394.60545        40.240    24387454.38044
  99862548.58544     -2645.14844        37.119
  23819055.46045 125169968.56345       315.25845        41.102    23819060.05743
  97535069.17343       245.65243        36.113
  20274235.17049 106541881.27949      -391.51249        49.833    20274234.72048
  83019661.28148      -305.07848        46.446
 21  5 25  0  9 30.0000000  0 11G 2G 5G13G15G16G18G20G23G25G26G29
  25201662.81945 132435630.38945     -2357.53545        40.094    25201662.41841
 103196591.23141     -1837.04341        32.158
  21372186.72748 112311695.38048     -2437.60948        47.732    21372186.34446
  87515654.56046     -1899.43846        41.811
  22230330.37048 116821210.00948      1315.71548        45.592    22230330.22844
  91029543.65644      1025.23044        36.738
  21735040.74348 114218470.43648      2641.42248        46.890    21735041.40045
  89001456.07645      2058.24645        41.084
  24731575.74744 129965300.86944      1936.90644        36.746    24731577.85643
 101271675.01343      1509.27743        35.319
  21564421.87048 113321841.64648      1903.32848        46.839    21564421.85845
  88302750.27445      1483.10945        40.243
  20300589.52649 106680398.81749      -986.06249        48.263    20300588.53847
  83127623.52947      -768.36347        43.973
  22766505.09747 119638830.12147      2963.05547        43.717    22766506.25344
  93225085.59144      2308.87144        37.435
  24406827.46344 128258708.74244     -3394.13344        38.803    24406831.19543
  99941894.39143     -2644.78143        34.559
  23817306.27145 125160776.53945       297.48045        40.258    23817311.03444
  97527906.57044       231.80144        36.891
  20276522.02749 106553898.91249      -409.69549        49.924    20276521.59948
  83029025.66748      -319.24648        46.410
 21  5 25  0 10  0.0000000  0 11G 2G 5G13G15G16G18G20G23G25G26G29
  25215128.85945 132506392.95245     -2359.65645        39.543    25215128.52543
 103251730.84543     -1838.68843        35.496
  21386130.97649 112384972.58849     -2447.73849        48.035    21386130.40546
  87572753.67646     -1907.33246        42.120
  22222870.77047 116782011.28847      1297.62547        45.076    22222871.25544
  90998999.24244      1011.13344        37.571
  21720001.91048 114139439.56748      2627.47748        47.225    21720002.70945
  88939873.62145      2047.38345        40.908
  24720565.35544 129907441.37244      1919.95344        37.949    24720567.13741
 101226589.69441      1496.06241        30.002
  21553571.28148 113264821.33348      1898.18048        47.002    21553571.24045
  88258318.85945      1479.09845        40.195
  20306255.29349 106710172.71049      -998.71949        48.137    20306254.28647
  83150823.97247      -778.22747        44.385
  22749614.57947 119550069.15447      2954.32047        43.646    22749615.47344
  93155921.24844      2302.06644        37.438
  24426202.35845 128360524.75645     -3393.77345        40.081    24426206.53542
 100021231.46542     -2644.50442        32.523
  23815658.79545 125152119.50845       279.73445        40.365    23815663.06245
  97521160.81645       217.97345        39.736
  20278912.33549 106566459.71149      -427.71549        49.921    20278911.76748
  83038813.30448      -333.28948        46.381
 21  5 25  0 10 30.0000000  0 11G 2G 5G13G15G16G18G20G23G25G26G29
  25228607.78044 132577225.74944     -2362.28144        37.735    25228607.31743
 103306925.22243     -1840.74243        34.964
  21400132.84249 112458552.16949     -2457.70749        48.002    21400132.06846
  87630088.42346     -1915.09846        41.412
  22215514.50447 116743354.94647      1279.41847        45.430    22215514.82344
  90968877.44244       996.94544        37.395
  21705043.86148 114060833.82748      2613.01248        47.219    21705044.48945
  88878622.43545      2036.10945        40.932
  24709648.20144 129850069.93244      1904.55944        37.759    24709649.87341
 101181884.69341      1484.07041        30.173
  21542751.94348 113207965.33148      1892.38748        47.052    21542751.86945
  88214015.49745      1474.58245        40.956
  20311993.19649 106740325.93049     -1011.51649        48.044    20311992.34247
  83174319.99047      -788.19547        43.997
  22732773.85847 119461570.89847      2945.64547        44.395    22732774.94344
  93086961.64544      2295.30944        37.192
  24445574.60645 128462326.52845     -3392.65245        39.758    24445579.38342
 100100557.46842     -2643.62942        33.219
  23814113.17945 125143997.34845       261.56245        39.655    23814117.47643
  97514831.85843       203.81243        34.912
  20281406.00649 106579563.87849      -445.89549        49.871    20281405.43748
  83049024.34048      -347.45348        46.308
 21  5 25  0 11  0.0000000  0 11G 2G 5G13G15G16G18G20G23G25G26G29
  25242099.96844 132648129.21944     -2364.82044        38.588    25242100.06243
 103362174.60143     -1842.72343        35.293
  21414191.68949 112532431.90049     -2467.60949        47.993    21414190.96346
  87687657.04446     -1922.81646        41.699
  22208261.98648 116705242.85848      1261.33248        45.972    22208262.06644
  90939179.74344       982.85244        37.335
  21690167.17748 113982656.06748      2598.75448        47.171    21690167.86146
  88817704.73746      2025.00046        41.171
  24698824.29944 129793188.07044      1888.16844        38.311    24698824.89041
 101137561.11841      1471.29341        31.525
  21531963.86548 113151274.07848      1887.09848        47.105    21531963.73045
  88169840.51145      1470.46145        39.935
  20317802.99849 106770856.83949     -1024.12549        47.973    20317802.15047
  83198110.31847      -798.02347        44.285
  22715983.49847 119373336.57447      2936.62147        44.284    22715984.31044
  93018207.65644      2288.27344        37.569
  24464943.94245 128564111.47945     -3392.43845        40.351    24464948.58244
 100179870.29544     -2643.46144        37.499
  23812668.81345 125136409.78945       244.08245        39.738    23812673.59144
  97508919.47944       190.19144        37.223
  20284003.14149 106593211.95649      -463.99649        49.861    20284002.61548
  83059659.20748      -361.55948        46.094
 21  5 25  0 11 30.0000000  0 11G 2G 5G13G15G16G18G20G23G25G26G29
  25255605.74744 132719103.21344     -2366.80544        38.419    25255606.40244
 103417478.96944     -1844.26644        37.630
  21428307.02248 112606608.80948     -2477.44548        47.376    21428306.52646
  87745457.22946     -1930.48046        42.255
  22201113.71048 116667677.18448      1243.01248        46.205    22201113.31043
  90909907.81543       968.57843        35.784
  21675372.15048 113904909.16648      2584.31248        46.447    21675373.02345
  88757122.77645      2013.74645        41.110
  24688093.59643 129736797.63343      1871.92643        35.365    24688093.73541
 101093620.55841      1458.64541        26.224
  21521207.26848 113094748.14148      1881.48448        46.848    21521207.12745
  88125794.34545      1466.09045        40.249
  20323684.34349 106801763.90849     -1036.50849        47.972    20323683.52547
  83222193.74947      -807.67247        44.214
  22699243.56747 119285367.31347      2927.91847        43.957    22699244.62345
  92949660.23845      2281.49245        39.636
  24484309.45945 128665876.54545     -3391.79345        40.129    24484313.93143
 100259167.66943     -2642.96143        35.274
  23811326.69545 125129356.58045       225.89545        39.986    23811331.23142
  97503423.48242       176.02042        33.686
  20286703.86249 106607404.60149      -482.19949        49.753    20286703.38548
  83070718.41048      -375.74248        46.125
 21  5 25  0 12  0.0000000  0 11G 2G 5G13G15G16G18G20G23G25G26G29
  25269124.89744 132790147.62544     -2369.29744        38.416    25269126.00343
 103472838.21343     -1846.20343        34.891
  21442478.46248 112681080.93948     -2487.19948        47.761    21442478.11146
  87803487.44646     -1938.08246        41.660
  22194069.73648 116630660.04348      1224.79748        45.808    22194069.14143
  90881063.29043       954.38343        36.357
  21660659.87348 113827596.39348      2569.79748        46.733    21660660.61445
  88696879.07945      2002.43845        40.598
  24677456.48644 129680900.40844      1855.14144        37.253    24677457.48641
 101050064.39641      1445.57041        20.250
  21510482.37648 113038388.09448      1875.86348        46.923    21510482.04545
  88081877.43045      1461.70745        40.362
  20329636.90749 106833045.57949     -1049.02349        48.046    20329636.19247
  83246569.07947      -817.42647        44.324
  22682554.19947 119197664.30047      2919.05947        44.546    22682555.44744
  92881320.27944      2274.71144        38.748
  24503670.36845 128767618.98945     -3391.05545        39.844    24503674.90241
 100338447.41241     -2642.38741        28.604
  23810086.21645 125122837.40045       208.32045        40.319    23810090.79743
  97498343.61243       162.32443        35.556
  20289508.23349 106622142.06749      -500.28949        49.822    20289507.92148
  83082202.14548      -389.84048        46.457
 21  5 25  0 12 30.0000000  0 11G 2G 5G13G15G16G18G20G23G25G26G29
  25282657.62144 132861262.85644     -2371.99644        37.158    25282658.42143
 103528252.59343     -1848.31243        35.870
  21456705.81048 112755846.14248     -2497.03548        47.563    21456705.45646
  87861746.03046     -1945.74646        41.527
  22187130.00447 116594193.06847      1206.53147        44.830    22187130.19043
  90852647.49543       940.15243        36.295
  21646030.66248 113750720.42548      2555.21948        46.554    21646031.49245
  88636975.75645      1991.07845        41.008
  24666913.97244 129625498.36444      1838.78944        37.898    24666914.97143
 101006893.99143      1432.82043        35.132
  21499788.99148 112982194.54048      1870.27048        46.436    21499788.90645
  88038090.26145      1457.35245        40.352
  20335660.66349 106864700.20849     -1061.36749        48.273    20335659.84447
  83271235.02547      -827.04347        43.881
  22665915.75647 119110228.68347      2910.16847        43.650    22665916.89045
  92813188.65345      2267.66045        39.283
  24523026.49645 128869335.94845     -3390.00845        39.545    24523031.46743
 100417707.28843     -2641.56643        35.638
  23808946.98745 125116852.03645       190.23445        39.947    23808951.67343
  97493679.69843       148.23043        34.820
  20292416.44249 106637424.80349      -518.48849        49.745    20292416.21748
  83094110.75948      -404.02048        46.331
 21  5 25  0 13  0.0000000  0 11G 2G 5G13G15G16G18G20G23G25G26G29
  25296204.01744 132932448.94144     -2373.87544        38.578    25296204.78242
 103583722.26242     -1849.77742        33.826
  21470988.51948 112830902.03548     -2506.75448        47.709    21470988.09046
  87920231.12046     -1953.31646        41.784
  22180295.28847 116558278.29347      1187.87947        44.828    22180295.91544
  90824661.98044       925.61744        37.562
  21631485.36148 113674284.45448      2540.59448        46.567    21631486.31946
  88577415.28546      1979.68046        41.295
  24656466.65145 129570593.43845      1821.97745        41.056    24656467.09842
 100964110.98342      1419.71942        32.770
  21489127.17048 112926167.79848      1864.77348        46.976    21489127.32345
  87994433.08345      1453.05945        40.708
  20341755.20349 106896726.76749     -1073.78149        48.309    20341754.40347
  83296190.78247      -836.71547        44.244
  22649327.84947 119023061.60347      2900.95747        44.068    22649329.66944
  92745266.31744      2260.48444        37.810
  24542377.08345 128971024.65545     -3389.05145        39.697    24542382.31141
 100496945.16041     -2640.82041        32.005
  23807909.40445 125111400.12445       172.80945        40.024    23807914.07043
  97489431.46143       134.64843        35.844
  20295428.44949 106653252.99549      -536.68449        49.682    20295428.19348
  83106444.40648      -418.19948        46.697
 21  5 25  0 13 30.0000000  0 11G 2G 5G13G15G16G18G20G23G25G26G29
  25309763.74544 133003705.97944     -2376.53544        37.769    25309764.36741
 103639247.12541     -1851.85541        28.924
  21485326.10148 112906246.35448     -2516.30948        47.547    21485325.58546
  87978940.97046     -1960.76246        42.041
  22173566.32348 116522917.59548      1169.39848        45.727    22173566.75044
  90797108.23444       911.21944        36.843
  21617024.24048 113598291.14748      2525.74248        46.733    21617025.22146
  88518199.74746      1968.10946        42.194
  24646114.34345 129516187.00345      1804.89545        40.697    24646113.51142
 100921716.34042      1406.40642        32.674
  21478497.61148 112870308.51648      1859.28548        47.121    21478497.77745
  87950906.38845      1448.78945        40.695
  20347920.29149 106929123.95449     -1086.07049        48.219    20347919.51447
  83321435.33947      -846.29347        44.762
  22632791.64147 118936164.21747      2891.89547        44.517    22632793.43944
  92677554.10244      2253.41444        38.075
  24561721.63244 129072682.31844     -3387.98844        36.862    24561726.94441
 100576158.79141     -2639.99641        32.143
  23806973.42145 125106481.34445       154.42645        39.540    23806978.00244
  97485598.67544       120.32844        36.713
  20298544.33749 106669627.06649      -555.01249        49.647    20298543.95748
  83119203.41348      -432.48048        46.329
 21  5 25  0 14  0.0000000  0 11G 2G 5G13G15G16G18G20G23G25G26G29
  25323337.15245 133075034.33245     -2378.77345        38.994    25323337.16543
 103694827.61743     -1853.59443        35.252
  21499718.26748 112981877.35648     -2525.71548        47.730    21499717.73446
  88037874.19746     -1968.09446        41.669
  22166943.48748 116488112.99948      1150.88748        46.017    22166943.51943
  90769987.77143       896.76643        36.547
  21602647.75248 113522743.31648      2510.80948        46.318    21602648.91146
  88459331.34746      1956.47346        41.574
  24635856.32944 129462280.82244      1788.15244        37.563    24635854.52342
 100879711.50142      1393.36342        33.387
  21467900.12148 112814617.30548      1853.50848        47.046    21467900.13945
  87907510.65845      1444.28945        41.024
  20354155.59949 106961889.79349     -1098.29349        48.632    20354154.72747
  83346967.16047      -855.81647        44.361
  22616307.18447 118849537.66847      2883.10947        44.046    22616308.93945
  92610052.95645      2246.57445        39.013
  24581060.00745 129174306.03045     -3386.80145        38.909    24581065.15842
 100655345.98742     -2639.07442        33.111
  23806138.85745 125102095.28245       137.22345        39.969    23806143.23544
  97482180.98944       106.92244        37.824
  20301764.26649 106686547.40649      -573.02049        49.996    20301763.75148
  83132388.08548      -446.51248        46.084
 21  5 25  0 14 30.0000000  0 10G 2G 5G13G15G18G20G23G25G26G29
  25336924.49744 133146433.75344     -2381.00044        38.756    25336924.58643
 103750463.44743     -1855.32843        35.497
  21514164.34949 113057791.44349     -2535.14849        47.836    21514163.67046
  88097028.01646     -1975.44546        42.082
  22160426.62648 116453866.00648      1132.20348        46.141    22160426.43644
  90743301.83544       882.23444        36.827
  21588356.69348 113447644.20548      2495.80948        46.584    21588357.67845
  88400812.58945      1944.78145        40.931
  21457334.46948 112759094.70648      1847.96948        46.862    21457334.46646
  87864246.30646      1439.97346        41.739
  20360460.80649 106995023.11849     -1110.68049        48.496    20360460.06347
  83372785.33147      -865.46947        44.505
  22599874.57947 118763183.06647      2873.99647        44.660    22599876.34544
  92542763.69044      2239.47344        38.852
  24600391.72145 129275893.09145     -3385.49245        39.009    24600396.38843
 100734504.64643     -2638.05543        36.548
  23805405.74245 125098241.60945       119.57445        40.137    23805410.16644
  97479178.13744        93.17244        36.785
  20305088.09649 106704014.09949      -591.26649        49.647    20305087.60248
  83145998.48848      -460.73048        46.428
 21  5 25  0 15  0.0000000  0 11G 2G 5G13G15G16G18G20G23G25G26G29
  25350525.11844 133217904.58644     -2383.50044        38.487    25350524.92043
 103806154.89643     -1857.28143        35.756
  21528663.95348 113133986.95848     -2544.48048        47.731    21528663.18946
  88156401.13046     -1982.71546        41.603
  22154016.26548 116420178.70548      1113.78548        45.565    22154015.68144
  90717051.99844       867.88344        37.506
  21574151.50648 113372996.54348      2480.83648        46.066    21574152.41046
  88342645.62646      1933.11746        41.677
  24615626.23645 129355962.27045      1754.75445        39.231    24615625.44542
 100796849.89742      1367.33642        33.298
  21446800.91948 112703741.27048      1842.34448        46.834    21446801.24845
  87821113.77145      1435.59045        40.681
  20366835.52849 107028522.39649     -1122.87549        48.214    20366834.93147
  83398888.65347      -874.97347        44.642
  22583493.91547 118677101.50647      2864.94947        44.678    22583495.54644
  92475687.19244      2232.27044        38.696
  24619715.81744 129377440.70244     -3384.16044        37.738    24619720.32142
 100813632.52042     -2637.02042        34.117
  23804774.04545 125094919.92445       101.76645        40.373    23804777.91144
  97476589.81844        79.29344        37.540
  20308515.89249 106722027.57349      -609.69149        49.752    20308515.58648
  83160034.95548      -475.08648        46.615
 21  5 25  0 15 30.0000000  0 11G 2G 5G13G15G16G18G20G23G25G26G29
  25364139.28545 133289446.76545     -2385.76245        40.641    25364138.73142
 103861902.04742     -1859.03942        32.507
  21543216.71748 113210461.79648     -2553.87948        47.573    21543215.87846
  88215991.90146     -1990.03946        41.344
  22147712.52548 116387052.88448      1094.82848        45.723    22147712.63544
  90691239.69444       853.10944        37.967
  21560033.18348 113298803.18448      2465.44548        47.338    21560033.74845
  88284832.64145      1921.12145        41.091
  24605656.02045 129303567.56345      1737.84045        40.753    24605655.92342
 100756022.86442      1354.15642        33.203
  21436299.65048 112648557.54548      1836.67648        46.828    21436300.30846
  87778113.48946      1431.17246        42.025
  20373279.56349 107062386.03849     -1134.95749        48.213    20373278.97647
  83425275.90347      -884.38747        44.554
  22567165.47247 118591294.13347      2855.84847        44.741    22567166.88844
  92408824.34244      2225.33244        38.174
  24639031.28244 129478946.12244     -3382.96144        37.629    24639036.06844
 100892727.52844     -2636.08644        37.106
  23804242.90845 125092129.75645        83.86345        40.229    23804246.61344
  97474415.68644        65.34444        38.155
  20312047.92549 106740588.65349      -627.79349        49.713    20312047.73248
  83174498.12448      -489.19148        46.423
 21  5 25  0 16  0.0000000  0 11G 2G 5G13G15G16G18G20G23G25G26G29
  25377767.37845 133361060.23745     -2388.24245        39.911    25377766.47843
 103917704.65243     -1860.97743        35.212
  21557821.88748 113287213.43048     -2562.95348        47.440    21557821.23846
  88275798.34246     -1997.10946        41.365
  22141515.91448 116354490.33348      1075.94548        45.825    22141516.55944
  90665866.30544       838.39544        37.283
  21546001.91048 113225067.18148      2450.22748        46.626    21546002.30245
  88227376.04345      1909.26645        41.004
  24595782.51244 129251679.84444      1721.19944        38.651    24595781.86042
 100715590.89042      1341.19142        32.658
  21425830.92548 112593544.15348      1830.85548        47.153    21425831.53145
  87735245.92445      1426.63745        40.560
  20379792.51949 107096612.67749     -1147.03949        48.055    20379792.02147
  83451946.01147      -893.80147        44.257
  22550889.25247 118505761.91147      2846.69147        44.834    22550890.64044
  92342175.92144      2218.19944        37.759
  24658338.47844 129580406.48844     -3381.14844        37.490    24658343.34042
 100971787.43442     -2634.66442        33.614
  23803812.86145 125089870.59945        66.66445        40.362    23803817.03244
  97472655.31644        51.94144        37.938
  20315684.15049 106759696.56349      -645.97749        49.987    20315683.93448
  83189387.40148      -503.36348        46.142
 21  5 25  0 16 30.0000000  0 11G 2G 5G13G15G16G18G20G23G25G26G29
  25391408.22143 133432745.44743     -2390.44143        34.649    25391408.01644
 103973563.22044     -1862.68444        38.411
  21572479.31148 113364239.78248     -2572.11348        47.054    21572478.80346
  88335818.86946     -2004.24646        41.557
  22135427.01148 116322492.53548      1057.21148        45.724    22135427.53444
  90640932.98344       823.79744        37.061
  21532057.86848 113151791.13148      2434.97348        46.733    21532058.35546
  88170277.85646      1897.37946        41.938
  24586004.05542 129200300.40342      1704.19942        33.775    24586004.85141
 100675555.05241      1327.94541        29.033
  21415394.79448 112538701.64648      1825.16448        46.768    21415395.52546
  87692511.52246      1422.20346        41.668
  20386374.39249 107131200.80349     -1159.01249        48.116    20386373.89547
  83478897.80047      -903.12947        44.217
  22534665.77847 118420506.13147      2837.29347        45.029    22534666.74044
  92275742.88644      2210.87544        38.356
  24677636.55444 129681819.05244     -3379.66444        37.721    24677641.99442
 101050810.11642     -2633.50842        33.607
  23803483.82245 125088142.04145        48.57845        40.191    23803488.00443
  97471308.40743        37.85243        35.623
  20319424.52649 106779352.05449      -664.22349        49.664    20319424.41248
  83204703.36048      -517.57848        46.433
 21  5 25  0 17  0.0000000  0 11G 2G 5G13G15G16G18G20G23G25G26G29
  25405062.21644 133504502.15744     -2393.17644        38.191    25405062.94842
 104029477.36042     -1864.82042        33.366
  21587188.58648 113441538.08448     -2581.04348        47.280    21587188.27046
  88396051.28346     -2011.20746        41.985
  22129445.86348 116291061.65148      1038.15648        45.655    22129445.79844
  90616441.39544       808.94944        37.083
  21518201.94148 113078977.98348      2419.36348        46.409    21518202.52146
  88113540.37846      1885.21546        41.837
  24576323.55543 129149437.33843      1687.09443        35.551    24576323.68742
 100635940.85542      1314.61342        32.492
  21404991.24148 112484030.57448      1819.55548        47.173    21404991.96946
  87649910.70946      1417.83246        41.516
  20393024.79649 107166148.95449     -1171.17249        48.314    20393024.12547
  83506130.11647      -912.60547        44.065
  22518494.97048 118335527.83148      2827.86348        45.664    22518495.70144
  92209526.06944      2203.52744        37.491
  24696924.93444 129783181.12944     -3377.93044        37.230    24696930.87742
 101129793.42842     -2632.15642        33.201
  23803256.10446 125086943.58946        31.03546        41.241    23803260.22443
  97470374.56043        24.18043        35.036
  20323269.10349 106799555.25349      -682.67649        49.734    20323269.03948
  83220446.10948      -531.95748        46.570
 21  5 25  0 17 30.0000000  0 11G 2G 5G13G15G16G18G20G23G25G26G29
  25418731.00644 133576330.71144     -2395.62544        38.559    25418731.43544
 104085447.65144     -1866.72344        37.424
  21601949.38248 113519106.21448     -2590.14548        47.755    21601949.18946
  88456493.96446     -2018.29746        41.513
  22123572.58047 116260198.97947      1019.19947        45.319    22123572.24944
  90592392.59444       794.18044        36.688
  21504434.56048 113006630.48248      2403.76648        46.602    21504435.13046
  88057165.74646      1873.06246        41.298
  24566741.94245 129099080.37545      1670.17645        38.914    24566740.99142
 100596701.69742      1301.43442        34.042
  21394620.54748 112429531.58948      1813.85248        47.008    21394621.06946
  87607443.97446      1413.38746        41.517
  20399743.47949 107201455.60549     -1182.76249        48.235    20399742.47547
  83533641.80147      -921.63747        44.072
  22502377.11047 118250828.02347      2818.50047        45.483    22502377.74443
  92143526.24843      2196.23043        36.610
  24716203.57644 129884489.89244     -3376.10544        37.993    24716209.00743
 101208735.16643     -2630.74243        36.225
  23803128.93746 125086274.70546        13.46146        41.274    23803132.89343
  97469853.36343        10.48443        34.862
  20327217.87549 106820306.04849      -700.91449        49.799    20327217.75948
  83236615.54748      -546.17248        46.083
 21  5 25  0 18  0.0000000  0 11G 2G 5G13G15G16G18G20G23G25G26G29
  25432413.50944 133648231.25944     -2398.04344        37.890    25432414.35942
 104141473.94242     -1868.61742        33.824
  21616761.28148 113596942.31448     -2598.99648        47.568    21616761.14746
  88517145.45646     -2025.19546        42.540
  22117807.93247 116229906.45547      1000.34847        45.359    22117807.62243
  90568788.01343       779.48843        36.566
  21490756.49048 112934751.47948      2388.17648        47.302    21490756.84346
  88001156.16846      1860.91446        41.183
  24557257.45345 129049236.95445      1652.78945        39.366    24557257.15741
 100557862.71041      1287.88341        30.710
  21384282.43948 112375205.23648      1808.08648        46.990    21384282.89346
  87565111.77246      1408.89546        41.390
  20406530.05749 107237119.36949     -1194.59049        48.343    20406529.12247
  83561431.74747      -930.85247        43.408
  22486312.42647 118166407.76447      2809.22347        45.311    22486313.16744
  92077744.26944      2189.00044        38.507
  24735471.66144 129985742.60544     -3374.14844        38.298    24735476.54642
 101287633.25642     -2629.21942        32.598
  23803102.44246 125086134.79046        -4.06646        41.686    23803106.40643
  97469744.36743        -3.17243        35.414
  20331270.97249 106841605.22349      -719.01249        49.694    20331270.79148
  83253212.30548      -560.27348        46.040
 21  5 25  0 18 30.0000000  0 11G 2G 5G13G15G16G18G20G23G25G26G29
  25446109.05743 133720203.69843     -2400.41843        35.764    25446110.41742
 104197556.29642     -1870.46542        34.061
  21631623.40948 113675043.48248     -2607.75848        47.201    21631623.04346
  88578003.51446     -2032.02346        41.691
  22112152.37548 116200185.65948       981.13348        45.836    22112152.08644
  90545628.99144       764.51644        36.691
  21477168.20848 112863343.67048      2372.41048        47.230    21477168.04845
  87945513.74345      1848.62945        40.783
  24547870.79145 128999908.59545      1636.11745        39.247    24547869.90742
 100519425.05542      1274.90242        32.705
  21373977.37248 112321052.11948      1801.99248        46.801    21373977.72846
  87522914.55546      1404.14846        41.583
  20413384.33249 107273138.71549     -1206.62549        48.557    20413383.50347
  83589498.77347      -940.23047        43.709
  22470300.93947 118082268.13947      2800.02747        44.749    22470302.16244
  92012180.97944      2181.83644        37.931
  24754728.40844 130086936.60944     -3372.73444        38.414    24754733.42741
 101366485.64141     -2628.10941        28.401
  23803176.33346 125086523.32046       -21.57446        41.116    23803180.44943
  97470047.10143       -16.81243        36.121
  20335428.23749 106863452.28149      -737.30549        49.621    20335428.14148
  83270235.98748      -574.52748        46.330
 21  5 25  0 19  0.0000000  0 11G 2G 5G13G15G16G18G20G23G25G26G29
  25459818.84144 133792248.28644     -2402.42644        38.476    25459820.09742
 104253694.82942     -1872.02742        34.400
  21646535.58248 113753407.98048     -2616.46148        47.083    21646535.01545
  88639066.75145     -2038.80545        41.022
  22106606.15548 116171038.33148       961.91048        46.178    22106605.65944
  90522916.79544       749.53944        36.682
  21463669.97748 112792410.08248      2356.70748        47.378    21463669.83845
  87890240.85345      1836.39145        40.548
  24538581.77044 128951096.83944      1618.41044        37.657    24538581.04943
 100481389.93143      1261.09443        35.626
  21363705.39148 112267072.82048      1796.41048        46.747    21363705.74646
  87480852.77946      1399.79746        41.710
  20420305.92249 107309511.93249     -1218.28949        48.571    20420304.96947
  83617841.54147      -949.32047        43.854
  22454343.29147 117998410.21847      2790.68047        44.839    22454344.49944
  91946837.18844      2174.55144        37.795
  24773973.50644 130188069.03344     -3370.17244        37.965    24773977.90441
 101445289.97641     -2626.11741        32.042
  23803350.60145 125087439.73745       -39.48445        40.284    23803354.54244
  97470761.17044       -30.77344        36.953
  20339689.89749 106885847.66249      -755.61749        49.652    20339689.91148
  83287686.92248      -588.79748        46.221
 21  5 25  0 19 30.0000000  0 11G 2G 5G13G15G16G18G20G23G25G26G29
  25473542.67145 133864364.66945     -2404.87545        40.106    25473543.02241
 104309889.39241     -1873.93041        30.931
  21661497.47048 113832033.20148     -2625.25448        47.237    21661496.82846
  88700333.16146     -2045.65646        41.181
  22101169.40848 116142466.03148       942.82048        46.181    22101168.89143
  90500652.65243       734.66043        35.922
  21450262.27748 112721953.24548      2340.68848        46.704    21450262.27346
  87835339.44646      1823.91046        41.513
  24529390.99044 128902803.26544      1601.41844        37.781    24529390.83942
 100443758.59242      1247.85242        33.674
  21353466.69648 112213267.98848      1790.54348        46.966    21353467.18046
  87438926.95346      1395.22746        41.738
  20427294.58449 107346237.54049     -1229.94149        48.493    20427293.48647
  83646458.90547      -958.39847        43.403
  22438439.26847 117914835.02247      2781.13347        45.024    22438440.52845
  91881713.71745      2167.06645        39.598
  24793206.39045 130289137.24445     -3367.65245        39.608    24793210.61141
 101524044.35141     -2624.14841        27.779
  23803625.15245 125088883.31845       -56.96145        40.817    23803629.03743
  97471886.09543       -44.38743        36.111
  20344055.96949 106908791.40649      -773.94149        49.640    20344056.10748
  83305565.16248      -603.07448        46.216
 21  5 25  0 20  0.0000000  0 11G 2G 5G13G15G16G18G20G23G25G26G29
  25487279.86144 133936553.31144     -2407.52344        37.244    25487279.63441
 104366140.08441     -1876.00441        30.155
  21676508.45748 113910916.56348     -2633.65248        46.665    21676507.71346
  88761800.72446     -2052.19946        41.720
  22095842.12648 116114470.36848       923.63748        46.206    22095841.66944
  90478837.90044       719.71544        37.985
  21436945.78748 112651975.89748      2324.46948        46.882    21436946.08746
  87780811.68246      1811.27046        41.639
  24520299.89145 128855029.31245      1584.06645        40.111    24520299.94341
 100406532.18741      1234.33641        28.505
  21343261.38448 112159638.23248      1784.68448        47.068    21343261.94646
  87397137.54946      1390.66046        41.690
  20434350.15749 107383314.48149     -1241.62149        48.458    20434349.03147
  83675350.03547      -967.50047        43.709
  22422589.23547 117831543.57847      2771.63347        44.909    22422590.50144
  91816811.33244      2159.71144        38.515
  24812426.60945 130390138.49345     -3365.42645        39.279    24812430.89243
 101602746.47643     -2622.41443        35.840
  23803999.79245 125090853.53745       -74.26245        39.428    23804003.96144
  97473421.34044       -57.87144        36.952
  20348526.44849 106932283.52449      -792.22749        49.707    20348526.47748
  83323870.69948      -617.32448        46.170
 21  5 25  0 20 30.0000000  0 11G 2G 5G13G15G16G18G20G23G25G26G29
  25501030.55444 134008814.53844     -2409.48844        37.269    25501030.39242
 104422447.58842     -1877.52042        33.265
  21691568.26348 113990056.44048     -2642.12548        47.061    21691567.53146
  88823468.15846     -2058.80146        41.273
  22090624.59648 116087052.68348       904.25048        45.667    22090623.89444
  90457473.48044       704.60544        38.602
  21423721.46948 112582480.86548      2308.47348        47.365    21423721.51245
  87726659.72845      1798.80945        40.786
  24511308.07445 128807776.42245      1566.35245        39.592    24511307.86141
 100369711.78341      1220.53541        29.032
  21333089.42848 112106184.13348      1778.89148        47.130    21333089.82746
  87355485.01146      1386.14546        41.283
  20441472.08949 107420740.75449     -1253.34049        48.021    20441471.08147
  83704513.36647      -976.63347        43.804
  22406793.44647 117748536.92647      2761.93847        43.964    22406794.82245
  91752130.88045      2152.16445        39.677
  24831633.45045 130491070.14645     -3363.28145        39.351    24831637.80942
 101681394.37342     -2620.74642        33.948
  23804474.67345 125093349.68345       -91.83245        40.780    23804478.88843
  97475366.35043       -71.56243        35.566
  20353101.25249 106956324.23849      -810.63349        49.579    20353101.09648
  83342603.71448      -631.66448        46.265
 21  5 25  0 21  0.0000000  0 11G 2G 5G13G15G16G18G20G23G25G26G29
  25514795.47845 134081148.13045     -2412.32845        39.847    25514795.32042
 104478811.27242     -1879.73842        34.092
  21706676.23748 114069449.92348     -2650.63348        46.801    21706675.89046
  88885333.21146     -2065.43046        41.941
  22085517.04847 116060214.71547       884.99647        45.382    22085516.55443
  90436560.80643       689.60543        36.579
  21410589.63648 112513471.10248      2292.16048        47.175    21410589.45146
  87672885.90546      1786.09446        42.035
  24502415.14943 128761046.05143      1549.14143        36.602    24502415.10642
 100333298.52842      1207.12142        33.594
  21322950.94648 112052906.30348      1773.04348        47.108    21322951.42946
  87313969.82946      1381.59046        41.512
  20448660.20349 107458514.89249     -1264.99649        48.278    20448659.27747
  83733947.76647      -985.71547        43.597
  22391052.00247 117665816.01047      2752.60947        44.589    22391053.61644
  91687673.08044      2144.88744        38.202
  24850826.73444 130591929.42244     -3360.49644        38.799    24850830.82043
 101759985.86343     -2618.57443        35.330
  23805049.72045 125096371.04545      -109.50445        39.807    23805053.69844
  97477720.66644       -85.33244        38.528
  20357780.38249 106980913.39849      -828.76649        49.744    20357780.12548
  83361764.09148      -645.79348        45.656
 21  5 25  0 21 30.0000000  0 10G 5G13G15G16G18G20G23G25G26G29
  21721832.24248 114149095.30848     -2658.95748        47.109    21721832.10546
  88947394.54346     -2071.91846        42.094
  22080520.30248 116033957.88648       865.44548        45.903    22080519.60444
  90416100.95344       674.37144        36.883
  21397550.26348 112444948.96648      2275.82448        47.348    21397550.30246
  87619492.06946      1773.36746        42.307
  24493621.59944 128714839.55244      1531.55944        37.735    24493622.30741
 100297293.54841      1193.41841        25.976
  21312846.14548 111999805.41548      1767.03948        47.165    21312846.80946
  87272592.53446      1376.91046        41.827
  20455914.25249 107496635.53049     -1276.46949        48.245    20455913.34547
  83763652.16947      -994.65247        43.689
  22375365.22747 117583381.91247      2742.94147        44.755    22375366.89245
  91623438.77245      2137.35545        39.548
  24870005.48744 130692713.68544     -3358.35944        38.343    24870009.46143
 101838518.89043     -2616.91043        35.245
  23805724.55845 125099916.97945      -126.88345        40.436    23805728.68044
  97480483.73144       -98.87144        37.109
  20362563.88449 107006050.92349      -847.06649        49.413    20362563.52148
  83381351.76148      -660.05548        45.806
 21  5 25  0 22  0.0000000  0 10G 5G13G15G16G18G20G23G25G26G29
  21737035.89948 114228990.35348     -2667.28148        47.014    21737035.74746
  89009650.41746     -2078.40246        41.758
  22075634.69548 116008283.79348       846.06248        46.106    22075633.68744
  90396095.18544       659.26644        37.109
  21384604.11348 112376917.16448      2259.39548        47.040    21384604.44646
  87566480.29846      1760.56246        42.117
  24484929.30244 128669158.93144      1513.94944        38.826    24484930.01742
 100261698.24342      1179.69942        33.635
  21302775.18448 111946882.10348      1761.15648        47.231    21302775.73446
  87231353.60146      1372.32846        41.336
  20463234.00649 107535101.18249     -1288.03149        48.355    20463233.12447
  83793625.40647     -1003.66447        43.928
  22359733.50647 117501235.62247      2733.36347        45.083    22359734.38944
  91559428.71444      2129.89144        38.169
  24889169.29844 130793420.22744     -3355.71944        38.060    24889173.76844
 101916991.36844     -2614.85244        37.197
  23806499.33245 125103986.74545      -144.46545        40.332    23806503.13843
  97483654.96743      -112.57443        35.344
  20367451.72349 107031737.04349      -865.30949        49.480    20367451.33848
  83401366.91548      -674.27048        45.620
 21  5 25  0 22 30.0000000  0 10G 5G13G15G16G18G20G23G25G26G29
  21752286.60648 114309132.95148     -2675.52748        46.865    21752286.45146
  89072099.19146     -2084.82846        41.721
  22070860.18048 115983193.84148       826.50448        45.969    22070859.59843
  90376544.62143       644.02743        36.338
  21371752.02248 112309378.60048      2242.91848        47.539    21371752.30946
  87513852.86846      1747.72746        41.317
  24476336.61144 128624004.70944      1496.25444        38.594    24476336.96941
 100226513.14641      1165.91441        22.330
  21292738.06348 111894136.97548      1755.20348        47.117    21292738.50046
  87190253.50246      1367.68846        41.276
  20470619.09749 107573910.28049     -1299.37949        48.413    20470618.29047
  83823866.26247     -1012.50847        44.155
  22344156.57048 117419378.09148      2723.67248        45.618    22344157.25644
  91495643.65444      2122.34044        37.542
  24908318.02944 130894046.35944     -3353.14844        38.028    24908322.60041
 101995401.22341     -2612.84841        31.326
  23807373.17546 125108579.54446      -161.76246        41.139    23807377.18543
  97487233.75243      -126.05143        34.602
  20372443.98649 107057971.58349      -883.71149        49.444    20372443.51247
  83421809.40547      -688.60947        45.427
 21  5 25  0 23  0.0000000  0 10G 5G13G15G16G18G20G23G25G26G29
  21767583.76748 114389520.01148     -2683.65248        46.999    21767583.75646
  89134738.44146     -2091.16046        41.704
  22066197.25148 115958689.45848       806.99248        45.706    22066196.70444
  90357450.29244       628.82044        38.043
  21358994.50348 112242335.85848      2226.46548        47.680    21358994.45746
  87461611.79146      1734.90646        41.724
  24467844.66845 128579378.47745      1478.54345        39.608    24467844.34742
 100191739.45842      1152.10542        33.946
  21282734.98648 111841570.67148      1749.31248        47.054    21282735.70146
  87149292.75546      1363.09846        41.266
  20478069.26349 107613061.33749     -1310.79749        48.332    20478068.60747
  83854373.58247     -1021.40247        43.824
  22328634.87448 117337810.33148      2713.99648        45.612    22328635.34644
  91432084.41344      2114.80144        38.673
  24927450.95244 130994589.41744     -3350.32044        38.060    24927455.54043
 102073746.26143     -2610.64843        34.947
  23808346.46145 125113694.65845      -179.37545        40.685    23808350.63344
  97491219.55544      -139.77744        36.818
  20377540.59549 107084754.38349      -901.77749        49.576    20377540.14447
  83442679.10947      -702.68847        44.863
 21  5 25  0 23 30.0000000  0 10G 5G13G15G16G18G20G23G25G26G29
  21782927.12348 114470149.91448     -2691.69948        46.917    21782927.00946
  89197566.91546     -2097.43046        41.256
  22061645.95248 115934771.92048       787.52348        45.708    22061645.59044
  90338813.27244       613.65244        36.741
  21346331.52448 112175791.38748      2209.66848        47.258    21346331.45346
  87409758.99046      1721.81646        41.809
  24459454.33545 128535281.91245      1461.10245        39.842    24459452.87541
 100157378.48941      1138.51641        26.707
  21272766.17848 111789183.86048      1743.32848        47.319    21272766.85846
  87108471.87646      1358.43446        41.613
  20485584.26049 107652552.87449     -1321.99249        48.323    20485583.70547
  83885146.21147     -1030.12947        44.243
  22313168.40747 117256533.28647      2704.30947        45.327    22313168.88545
  91368751.69545      2107.25045        39.399
  24946567.30444 131095046.75744     -3347.31244        36.983    24946572.05844
 102152024.50844     -2608.30944        37.207
  23809418.88245 125119331.25445      -196.55945        39.094    23809423.62644
  97495611.69044      -153.16444        37.562
  20382741.58849 107112085.50249      -920.28949        49.603    20382740.93247
  83463976.07847      -717.11347        45.312
 21  5 25  0 24  0.0000000  0 10G 5G13G15G16G18G20G23G25G26G29
  21798316.10648 114551020.37748     -2699.60948        46.662    21798316.02146
  89260582.84246     -2103.59446        41.624
  22057206.33948 115911442.77748       767.87948        45.940    22057206.51244
  90320634.75644       598.34444        36.885
  21333763.67748 112109747.97248      2193.03548        47.698    21333763.79846
  87358296.62046      1708.85546        41.816
  24451164.00344 128491716.72644      1443.38744        37.426    24451162.98441
 100123431.64441      1124.71541        30.303
  21262831.67948 111736977.18348      1737.19148        47.375    21262832.28446
  87067791.35246      1353.65246        41.798
  20493163.81149 107692383.28549     -1333.26249        48.480    20493163.15947
  83916182.89947     -1038.91047        43.884
  22297757.42947 117175547.93847      2694.48447        44.821    22297757.84044
  91305646.26244      2099.59444        38.276
  24965666.96044 131195415.76544     -3344.51244        37.580    24965671.90244
 102230233.97244     -2606.11744        37.857
  23810590.69345 125125488.55645      -213.68045        40.526    23810595.27543
  97500409.54743      -166.50843        35.849
  20388046.88049 107139964.90449      -938.52049        49.386    20388046.05647
  83485700.28647      -731.31647        45.253
 21  5 25  0 24 30.0000000  0 10G 5G13G15G16G18G20G23G25G26G29
  21813750.61448 114632129.05148     -2707.64548        46.938    21813750.54945
  89323784.38745     -2109.85545        40.978
  22052879.00248 115888703.52348       748.06248        45.833    22052879.35544
  90302915.87544       582.90244        36.734
  21321291.70548 112044208.21148      2176.35248        47.325    21321291.94946
  87307226.71946      1695.85546        41.679
  24442974.67644 128448683.69744      1425.60244        37.932    24442974.51343
 100089899.44043      1110.85543        35.111
  21252931.71648 111684951.25848      1731.23448        47.697    21252932.03546
  87027251.68746      1349.01246        41.800
  20500807.49949 107732550.97349     -1344.62549        48.160    20500806.76047
  83947482.39547     -1047.76247        43.812
  22282401.97747 117094855.22547      2684.87947        45.227    22282402.44044
  91242768.87244      2092.10944        38.124
  24984749.57444 131295693.70644     -3340.88344        37.421    24984754.31242
 102308372.43942     -2603.29742        32.587
  23811861.72145 125132165.71445      -231.30945        40.965    23811865.65543
  97505612.53743      -180.24243        36.348
  20393456.42449 107168392.33149      -956.74649        49.343    20393455.63647
  83507851.51747      -745.52047        45.365
 21  5 25  0 25  0.0000000  0 10G 5G13G15G16G18G20G23G25G26G29
  21829230.17448 114713473.71748     -2715.44948        47.173    21829229.73445
  89387169.83045     -2115.93845        40.753
  22048664.28648 115866555.32548       728.55548        45.878    22048664.84444
  90285657.53944       567.70344        37.245
  21308916.26948 111979174.69948      2159.31648        47.719    21308916.25846
  87256551.27046      1682.58246        41.875
  24434887.32545 128406183.83345      1407.69945        39.288    24434887.05441
 100056782.73141      1096.91041        32.222
  21243066.10248 111633106.81748      1724.94948        47.517    21243066.15046
  86986853.42246      1344.11346        42.365
  20508514.95649 107773054.34749     -1355.71549        48.231    20508514.25247
  83979043.45747     -1056.40647        43.599
  22267102.44447 117014456.10747      2674.86747        45.242    22267103.02744
  91180120.26344      2084.30944        38.101
  25003813.86044 131395878.01044     -3337.95744        37.334    25003818.76641
 102386437.96841     -2601.01241        27.029
  23813231.13345 125139361.81445      -248.71145        41.004    23813235.65243
  97511219.87043      -193.80543        36.599
  20398970.29949 107197367.73849      -975.07449        49.426    20398969.56647
  83530429.74247      -759.80147        45.402
 21  5 25  0 25 30.0000000  0 10G 5G13G15G16G18G20G23G25G26G29
  21844754.16048 114795052.04048     -2723.16848        46.935    21844753.36045
  89450737.34545     -2121.95345        41.038
  22044562.36148 115844999.42048       708.69948        46.326    22044562.86944
  90268860.77544       552.23044        37.171
  21296637.67648 111914650.13448      2142.23048        47.405    21296637.41346
  87206272.41246      1669.26646        42.324
  24426901.79144 128364218.87144      1390.02344        38.223    24426901.07342
 100024082.74542      1083.13342        32.522
  21233235.20849 111581444.47749      1719.04749        47.973    21233235.05546
  86946597.05746      1339.51646        41.357
  20516286.08749 107813892.05549     -1366.86749        48.351    20516285.42947
  84010865.04647     -1065.09447        43.349
  22251859.16948 116934351.51648      2665.44148        45.584    22251859.61645
  91117701.14845      2076.96545        40.044
  25022859.77544 131495965.95244     -3333.88344        37.608    25022865.07841
 102464428.41341     -2597.83641        19.495
  23814698.63945 125147076.05345      -265.65245        40.669    23814703.51542
  97517230.94842      -207.00442        33.715
  20404588.41249 107226890.98249      -993.23849        49.420    20404587.64747
  83553434.86247      -773.95747        45.264
 21  5 25  0 26  0.0000000  0 10G 5G13G15G16G18G20G23G25G26G29
  21860321.90748 114876861.93848     -2730.79348        46.687    21860321.40445
  89514485.29745     -2127.89545        40.543
  22040573.57648 115824037.21448       688.75448        45.977    22040573.66644
  90252526.58144       536.68844        36.722
  21284456.21948 111850636.85148      2125.15648        47.148    21284456.14746
  87156391.96946      1655.96146        41.644
  24419017.91145 128322789.85145      1372.06245        39.062    24419017.86641
  99991800.44641      1069.13741        30.786
  21223438.96848 111529964.92648      1713.00048        47.685    21223438.77846
  86906483.13446      1334.80146        41.897
  20524120.54249 107855062.40249     -1377.92249        48.238    20524119.74747
  84042945.83547     -1073.70747        43.772
  22236672.07348 116854542.41048      2655.62948        45.600    22236672.31545
  91055512.26745      2069.31645        39.640
  25041887.30244 131595955.04444     -3331.25444        38.355    25041892.75742
 102542341.79442     -2595.78542        33.562
  23816264.99745 125155307.49545      -283.19945        40.624    23816269.76744
  97523645.03144      -220.68044        37.583
  20410310.69949 107256961.59149     -1011.60949        49.360    20410309.87947
  83576866.49947      -788.27047        45.356
 21  5 25  0 26 30.0000000  0 10G 5G13G15G16G18G20G23G25G26G29
  21875933.27148 114958901.30348     -2738.31248        46.294    21875933.16046
  89578412.06246     -2133.75446        41.509
  22036697.91748 115803669.85548       668.93048        45.920    22036697.62544
  90236655.91344       521.24244        37.296
  21272372.48948 111787137.50748      2108.09048        47.059    21272372.53946
  87106911.99346      1642.66446        42.212
  24411236.01344 128281898.04044      1353.91444        37.585    24411236.36042
  99959936.70042      1054.99642        32.791
  21213677.56748 111478668.86248      1706.87948        47.638    21213677.64246
  86866512.18746      1330.03146        42.001
  20532018.12849 107896563.94449     -1388.83649        48.308    20532017.14247
  84075284.69547     -1082.21547        43.435
  22221541.30648 116775029.68848      2645.53548        45.869    22221541.55645
  90993554.34145      2061.45345        38.969
  25060895.43244 131695842.62244     -3327.90244        37.735    25060900.86742
 102620176.06542     -2593.18042        32.339
  23817929.53245 125164055.15945      -300.26245        40.564    23817934.32243
  97530461.39643      -233.97343        36.220
  20416137.09249 107287579.63149     -1029.69149        49.316    20416136.44547
  83600724.70547      -802.35947        45.298
 21  5 25  0 27  0.0000000  0 10G 5G13G15G16G18G20G23G25G26G29
  21891587.90248 115041168.04348     -2745.93448        46.533    21891588.16646
  89642515.99146     -2139.69146        41.245
  22032935.71948 115783898.56948       649.04348        45.879    22032935.40644
  90221249.73844       505.74644        37.768
  21260387.13348 111724154.67848      2090.69948        46.887    21260387.39646
  87057834.49546      1629.11346        42.074
  24403556.90845 128241545.09745      1336.06645        39.423    24403557.51241
  99928492.85541      1041.08641        29.557
  21203951.19349 111427556.94249      1700.70749        47.780    21203951.31246
  86826684.74146      1325.22346        41.596
  20539978.44349 107938395.25649     -1399.92249        48.581    20539977.37647
  84107880.51647     -1090.85247        43.403
  22206467.01047 116695814.21847      2635.72347        45.447    22206467.72045
  90931828.04845      2053.80945        40.199
  25079883.57444 131795626.04344     -3324.89844        37.340    25079889.14243
 102697929.17843     -2590.84043        35.848
  23819692.54745 125173318.20545      -317.64545        40.623    23819697.11043
  97537679.31743      -247.52043        35.913
  20422067.76449 107318745.27849     -1047.93849        49.411    20422067.18247
  83625009.61847      -816.57847        45.407
 21  5 25  0 27 30.0000000  0 10G 5G13G15G16G18G20G23G25G26G29
  21907285.63448 115123659.68448     -2753.39148        46.464    21907285.82846
  89706795.17746     -2145.50446        41.387
  22029287.22548 115764724.57948       629.25448        46.423    22029286.78944
  90206308.98744       490.27744        37.069
  21248500.57548 111661690.72348      2073.46948        47.438    21248501.00846
  87009161.30846      1615.68846        41.849
  24395980.78445 128201731.44845      1318.53145        40.362    24395981.61242
  99897469.23442      1027.41842        34.221
  21194260.00848 111376629.86048      1694.48048        47.692    21194260.46946
  86787001.32246      1320.37146        41.985
  20548001.15849 107980554.56049     -1410.80949        48.663    20547999.95647
  84140731.91047     -1099.33647        43.448
  22191449.20347 116616896.92047      2625.69547        44.681    22191450.12045
  90870334.10045      2045.99245        39.635
  25098851.51344 131895302.76944     -3320.69544        36.684    25098857.27842
 102775599.17442     -2587.56242        34.072
  23821553.51845 125183095.53145      -334.28145        40.871    23821556.75343
  97545298.02743      -260.48043        35.482
  20428102.52249 107350457.67249     -1066.20349        49.435    20428101.95647
  83649720.56247      -830.81247        45.430
 21  5 25  0 28  0.0000000  0 10G 5G13G15G16G18G20G23G25G26G29
  21923025.82048 115206373.69448     -2760.76248        46.733    21923025.67745
  89771247.64745     -2151.24645        40.882
  22025752.51848 115746149.37248       609.34848        46.041    22025752.11244
  90191834.81144       474.81244        37.761
  21236713.36748 111599748.28748      2055.87948        47.415    21236713.91246
  86960894.49546      1601.98046        42.818
  24388507.73645 128162458.79745      1299.75445        40.926    24388507.93043
  99866867.16843      1012.78943        34.652
  21184604.13548 111325888.28448      1688.32448        47.656    21184604.74546
  86747462.45946      1315.57446        42.065
  20556085.89449 108023040.20849     -1421.74649        48.434    20556084.82647
  84173837.60147     -1107.85547        43.399
  22176488.49647 116538278.74247      2615.50047        45.085    22176489.45845
  90809073.22545      2038.04745        39.523
  25117798.25743 131994870.13543     -3317.07443        36.606    25117804.78141
 102853183.92041     -2584.74241        24.663
  23823511.83546 125193386.27146      -351.48046        41.718    23823515.40142
  97553316.77942      -273.88342        33.944
  20434241.07249 107382716.27449     -1084.38749        49.264    20434240.64247
  83674857.13047      -844.98047        45.329
 21  5 25  0 28 30.0000000  0 10G 5G13G15G16G18G20G23G25G26G29
  21938807.96548 115289308.64048     -2768.28148        46.663    21938807.60045
  89835872.26545     -2157.10545        41.035
  22022331.67648 115728173.81848       589.32848        45.807    22022331.36344
  90177827.90344       459.15244        36.901
  21225025.80148 111538329.60648      2038.52048        47.718    21225026.35646
  86913035.81546      1588.45346        42.398
  24381137.54745 128123728.07945      1282.00445        39.057    24381137.94041
  99836687.39341       998.96141        30.046
  21174983.69048 111275332.91448      1681.98448        47.751    21174984.44746
  86708068.69546      1310.63346        42.732
  20564232.55749 108065851.30449     -1432.50049        48.320    20564231.53846
  84207196.88746     -1116.23846        43.019
  22161585.15048 116459960.50048      2605.59448        45.809    22161586.01444
  90748046.07344      2030.32844        38.786
  25136724.21744 132094325.54944     -3313.06244        36.755    25136730.87842
 102930681.44742     -2581.61342        32.921
  23825567.58046 125204189.28646      -368.69946        41.186    23825571.03943
  97561734.70043      -287.30143        34.585
  20440483.53749 107415521.43849     -1102.67249        49.216    20440483.46647
  83700419.58347      -859.22747        45.480
 21  5 25  0 29  0.0000000  0 10G 5G13G15G16G18G20G23G25G26G29
  21954631.58748 115372461.97148     -2775.28548        46.611    21954631.08745
  89900667.06545     -2162.56245        39.555
  22019025.05948 115710799.00248       569.12548        45.986    22019024.86643
  90164289.11643       443.47343        36.208
  21213438.22448 111477437.39548      2020.92248        47.421    21213438.68546
  86865587.36146      1574.74246        41.537
  24373870.51545 128085540.05045      1263.98045        39.072    24373870.79243
  99806930.52943       984.92243        35.901
  21165398.86948 111224964.46348      1675.83248        47.335    21165399.55146
  86668820.57346      1305.84046        42.201
  20572440.68049 108108985.59049     -1443.20749        48.423    20572439.69446
  84240808.02046     -1124.58246        43.301
  22146739.28748 116381943.12648      2595.44548        46.322    22146739.63944
  90687253.33744      2022.42244        38.886
  25155628.55343 132193666.55943     -3309.81243        36.409    25155635.01841
 103008089.80041     -2579.08241        29.499
  23827720.78545 125215503.62445      -385.71545        40.834    23827724.00843
  97570551.05943      -300.55943        35.146
  20446830.03949 107448872.88649     -1120.73449        48.959    20446830.17048
  83726407.71348      -873.30148        45.776
 21  5 25  0 29 30.0000000  0 10G 5G13G15G16G18G20G23G25G26G29
  21970496.16748 115455831.32848     -2782.42648        46.468    21970495.77245
  89965630.18845     -2168.12945        40.961
  22015833.24948 115694026.12048       548.96148        46.306    22015833.01143
  90151219.34643       427.75843        35.725
  21201951.44848 111417074.08048      2003.24248        47.633    21201951.73246
  86818551.04246      1560.96546        41.850
  24366706.84044 128047896.29044      1245.93044        38.688    24366706.76441
  99777597.77341       970.85941        31.681
  21155849.75648 111174783.61748      1669.60548        47.552    21155850.23846
  86629718.64046      1300.98846        42.100
  20580710.13649 108152441.98349     -1453.85949        48.412    20580709.15946
  84274670.13846     -1132.87946        43.277
  22131950.74948 116304227.42448      2585.50048        45.963    22131950.91044
  90626695.67044      2014.67244        38.625
  25174510.36244 132292890.50044     -3305.28944        36.672    25174517.19342
 103085406.87542     -2575.55942        33.289
  23829970.81045 125227328.26345      -402.60545        39.636    23829974.49543
  97579765.03643      -313.72343        36.369
  20453280.52349 107482770.09949     -1138.93049        49.329    20453280.66047
  83752821.10947      -887.48047        45.358
 21  5 25  0 30  0.0000000  0 10G 5G13G15G16G18G20G23G25G26G29
  21986401.54048 115539414.70548     -2789.61748        46.583    21986401.06945
  90030760.07445     -2173.73045        40.426
  22012756.30248 115677856.06248       528.91848        45.822    22012756.01444
  90138619.31744       412.14144        37.002
  21190565.92148 111357242.11448      1985.46148        47.642    21190566.03646
  86771928.74746      1547.10946        42.020
  24359647.22244 128010798.04644      1227.31644        38.802    24359647.36541
  99748689.98241       956.34841        31.803
  21146336.58848 111124791.12148      1663.39148        47.626    21146336.91946
  86590763.45846      1296.14546        41.571
  20589040.50649 108196218.56149     -1464.57049        48.352    20589039.72147
  84308781.74447     -1141.22747        43.431
  22117219.48548 116226814.19548      2575.38748        45.764    22117219.86045
  90566373.70545      2006.79345        38.924
  25193369.55543 132391994.92143     -3301.89843        35.912    25193376.39742
 103162630.86442     -2572.92242        34.063
  23832317.54845 125239662.11645      -419.45345        40.007    23832321.80244
  97589375.81444      -326.85244        38.409
  20459834.75149 107517212.50249     -1157.25849        49.224    20459834.89847
  83779659.33847      -901.76247        45.449
 21  5 25  0 30 30.0000000  0 10G 5G13G15G16G18G20G23G25G26G29
  22002347.20448 115623209.93748     -2796.56648        46.098    22002346.90346
  90096055.02946     -2179.14546        41.939
  22009794.22348 115662290.05248       508.78548        46.271    22009794.01544
  90126489.97944       396.45344        37.492
  21179281.84748 111297943.72448      1967.71548        47.433    21179281.90746
  86725722.22746      1533.28146        42.306
  24352691.46144 127974245.91744      1209.28544        38.151    24352692.11741
  99720207.85641       942.29741        29.022
  21136859.15848 111074987.64148      1656.99248        47.214    21136859.63946
  86551955.57946      1291.16046        41.704
  20597431.45449 108240313.99249     -1475.09449        48.307    20597430.87946
  84343141.81846     -1149.42646        43.221
  22102545.76248 116149704.47148      2565.18048        45.768    22102546.55045
  90506288.23645      1998.84045        39.686
  25212205.49743 132490977.16743     -3297.28543        35.654    25212211.87543
 103239759.63343     -2569.32843        36.359
  23834761.02345 125252503.96045      -436.58645        40.553    23834765.61844
  97599382.43644      -340.19944        36.706
  20466492.71549 107552199.84349     -1175.22749        49.189    20466492.65847
  83806922.19347      -915.76647        45.413
 21  5 25  0 31  0.0000000  0 10G 5G13G15G16G18G20G23G25G26G29
  22018332.88148 115707214.82548     -2803.67648        46.271    22018332.63246
  90161513.37346     -2184.68846        41.332
  22006947.19148 115647328.98548       488.60248        45.989    22006946.93544
  90114832.01344       380.72744        37.145
  21168099.69148 111239181.24548      1949.77748        47.434    21168099.57946
  86679933.30146      1519.30546        42.105
  24345839.71444 127938241.33344      1191.34044        37.799    24345841.26443
  99692152.40743       928.31243        35.896
  21127417.94048 111025373.93648      1650.68048        47.690    21127418.39546
  86513295.56646      1286.24246        41.553
  20605882.85949 108284726.75849     -1485.62549        48.442    20605882.35446
  84377749.17246     -1157.63346        42.961
  22087929.99847 116072899.01147      2554.98447        45.259    22087930.86945
  90446439.85445      1990.89545        40.055
  25231017.93044 132589834.70044     -3292.83244        38.663    25231024.44443
 103316791.27043     -2565.85243        36.195
  23837301.12046 125265852.79346      -453.22346        41.364    23837305.35144
  97609784.10844      -353.16444        37.913
  20473254.22649 107587732.00149     -1193.52349        49.306    20473253.97147
  83834609.57247      -930.02047        44.915
 21  5 25  0 31 30.0000000  0 10G 5G13G15G16G18G20G23G25G26G29
  22034357.96148 115791427.34448     -2810.56248        45.977    22034357.90246
  90227133.48246     -2190.05146        41.175
  22004215.60948 115632973.82348       468.27748        46.127    22004215.29144
  90103646.20144       364.88744        37.632
  21157019.94948 111180957.25948      1931.90248        47.530    21157019.99546
  86634563.97846      1505.37546        42.428
  24339092.73645 127902784.71345      1172.65245        40.205    24339094.28141
  99664523.88541       913.75041        32.136
  21118013.00148 110975950.69048      1644.37548        47.295    21118013.41246
  86474783.95746      1281.32846        41.753
  20614394.40049 108329455.23849     -1496.14549        47.995    20614393.91347
  84412602.53047     -1165.83247        43.624
  22073372.19147 115996398.60547      2544.84847        45.284    22073373.07945
  90386829.18345      1982.99645        39.078
  25249805.97144 132688565.03044     -3289.05544        38.549    25249811.99242
 103393723.75642     -2562.90642        32.890
  23839937.73546 125279707.46246      -470.53146        41.301    23839941.76043
  97620579.94943      -366.65243        35.615
  20480119.33749 107623808.54849     -1211.49249        49.154    20480119.06847
  83862721.16047      -944.02347        45.044
 21  5 25  0 32  0.0000000  0 10G 5G13G15G16G18G20G23G25G26G29
  22050422.14848 115875845.58048     -2817.26248        46.000    22050422.35945
  90292913.89545     -2195.27345        40.802
  22001599.59648 115619225.79148       448.23448        46.567    22001598.88443
  90092933.44643       349.27043        36.236
  21146043.30548 111123274.02648      1913.80948        47.265    21146043.48146
  86589616.03146      1491.27746        43.018
  24332450.61745 127867877.59545      1154.27745        40.188    24332451.03241
  99637323.55041       899.43441        30.041
  21108644.44348 110926718.68148      1637.85548        47.723    21108644.63046
  86436421.35746      1276.24646        41.759
  20622965.72249 108374497.96349     -1506.59849        48.045    20622965.28046
  84447700.76346     -1173.97746        42.894
  22058872.86048 115920204.10448      2534.84448        46.159    22058874.03745
  90327456.88645      1975.19945        39.698
  25268569.23744 132787165.61344     -3284.04744        37.561    25268575.06241
 103470555.16641     -2559.00441        30.799
  23842670.63245 125294066.73145      -486.98445        41.097    23842674.19343
  97631768.97643      -379.47343        36.202
  20487087.99449 107660428.90149     -1229.81249        48.979    20487087.70947
  83891256.48347      -958.29747        45.144
 21  5 25  0 32 30.0000000  0 10G 5G13G15G16G18G20G23G25G26G29
  22066525.20048 115960467.14148     -2824.14848        46.674    22066525.58745
  90358852.74845     -2200.63745        40.592
  21999099.15148 115606085.81048       427.93448        46.440    21999098.38643
  90082694.52843       333.45343        36.192
  21135169.95949 111066133.89949      1895.56249        47.785    21135170.03846
  86545091.27546      1477.05946        42.693
  24325913.31946 127833521.04846      1136.27746        41.172    24325912.48441
  99610552.18341       885.40241        28.530
  21099312.36248 110877678.62648      1631.36348        47.544    21099312.66046
  86398208.31646      1271.18846        42.368
  20631596.57849 108419853.27049     -1517.00849        48.270    20631596.00946
  84483042.56746     -1182.08646        42.688
  22044431.95348 115844316.32648      2524.46948        45.942    22044433.04445
  90268323.58345      1967.11745        40.000
  25287307.18544 132885633.99844     -3280.07844        37.538    25287312.85142
 103547283.53342     -2555.91842        33.180
  23845499.17246 125308929.48046      -503.94146        41.292    23845502.65843
  97643350.30743      -392.68443        35.527
  20494159.85849 107697592.17249     -1247.97349        48.923    20494159.47547
  83920214.87047      -972.44947        45.288
 21  5 25  0 33  0.0000000  0 10G 5G13G15G16G18G20G23G25G26G29
  22082666.56348 116045289.72448     -2830.78148        46.605    22082666.67945
  90424948.25345     -2205.80945        40.634
  21996714.23648 115593554.52548       407.39848        45.930    21996713.70443
  90072929.92043       317.44943        36.076
  21124400.24448 111009539.10948      1877.31248        47.741    21124400.41946
  86500991.46746      1462.83646        42.552
  24319480.79544 127799715.47544      1117.51244        38.687    24319478.95941
  99584210.16841       870.78541        31.258
  21090016.91148 110828831.23948      1624.98848        47.183    21090017.52346
  86360145.41746      1266.22346        42.407
  20640286.72549 108465520.03549     -1527.47749        48.012    20640286.07046
  84518627.07846     -1190.24646        43.231
  22030049.46548 115768736.04148      2514.39548        45.835    22030050.34645
  90209429.88945      1959.26645        39.424
  25306019.54843 132984025.67243     -3275.47743        35.637    25306024.58341
 103623944.93341     -2552.33641        16.112
  23848423.09846 125324294.46346      -520.72746        41.690    23848426.26743
  97655323.02143      -405.76643        35.010
  20501334.96949 107735298.16149     -1265.88349        48.873    20501334.79847
  83949596.14947      -986.40647        45.323
 21  5 25  0 33 30.0000000  0 10G 5G13G15G16G18G20G23G25G26G29
  22098845.58048 116130311.15048     -2837.38748        46.638    22098845.57245
  90491198.71145     -2210.95345        39.646
  21994445.40148 115581633.03748       387.18448        45.562    21994444.91244
  90063640.46244       301.69944        37.171
  21113734.67649 110953492.00049      1859.22749        48.005    21113735.05546
  86457318.41446      1448.74646        42.642
  24313151.97543 127766461.91743      1099.52043        35.038    24313150.99643
  99558298.25543       856.76643        34.542
  21080758.17448 110780177.29348      1618.61748        47.251    21080759.00546
  86322233.25546      1261.25846        42.771
  20649035.68749 108511495.88749     -1537.74249        48.424    20649035.03447
  84554452.42647     -1198.24247        43.685
  22015725.66848 115693464.10448      2503.85548        45.747    22015726.55545
  90150776.46545      1951.05545        39.893
  25324706.03643 133082222.10543     -3270.89143        35.720    25324711.09541
 103700461.44541     -2548.75441        16.282
  23851442.43646 125340160.50746      -537.37146        41.874    23851445.82042
  97667686.16042      -418.73442        33.926
  20508613.33549 107773546.40549     -1283.96149        49.053    20508613.33847
  83979399.96647     -1000.49247        44.744
 21  5 25  0 34  0.0000000  0 10G 5G13G15G16G18G20G23G25G26G29
  22115062.05348 116215529.43748     -2843.81648        46.374    22115061.84445
  90557602.57945     -2215.96545        39.780
  21992292.92648 115570322.09048       366.91848        45.940    21992292.76744
  90054826.75544       285.90644        37.677
  21103173.91649 110897994.55149      1840.77049        47.883    21103174.32346
  86414073.66746      1434.36346        42.776
  24306926.76743 127733768.73443      1080.66443        34.995    24306928.66441
  99532807.69841       842.07841        24.311
  21071536.44348 110731717.54248      1612.06248        47.204    21071537.32046
  86284472.41646      1256.14846        42.108
  20657843.24249 108557779.75149     -1547.88349        48.322    20657842.66346
  84590517.78946     -1206.14546        43.239
  22001460.68948 115618501.24148      2493.52748        45.993    22001461.53545
  90092363.87945      1943.00445        39.429
  25343365.57344 133180278.80944     -3266.07444        36.749    25343371.08442
 103776869.01642     -2544.99642        32.587
  23854556.87746 125356526.29346      -553.96146        41.639    23854560.03343
  97680438.71843      -431.66043        35.273
  20515994.87649 107812336.50549     -1302.04349        48.768    20515995.01447
  84009626.00547     -1014.58247        45.368
 21  5 25  0 34 30.0000000  0  9G 5G13G15G18G20G23G25G26G29
  22131315.63648 116300942.91048     -2850.39548        46.256    22131315.36145
  90624158.54445     -2221.09045        40.358
  21990256.89048 115559622.54548       346.56248        45.778    21990256.87244
  90046489.45844       270.04744        37.734
  21092718.18249 110843049.29449      1822.28549        47.834    21092718.54346
  86371259.19446      1419.96146        41.855
  21062352.06048 110683452.74248      1605.55148        47.585    21062352.86346
  86246863.48146      1251.07446        42.722
  20666709.02649 108604370.09949     -1558.08649        48.281    20666708.57846
  84626821.96646     -1214.09846        43.130
  21987254.61748 115543848.26348      2483.04348        45.700    21987255.72245
  90034192.75645      1934.83645        40.656
  25361998.06743 133278193.33143     -3261.47743        35.587    25362004.56942
 103853165.77542     -2541.41442        34.071
  23857765.91745 125373390.59345      -570.57845        40.243    23857769.11543
  97693579.72843      -444.60943        36.273
  20523479.34549 107851667.78849     -1320.03549        48.888    20523479.49247
  84040273.74647     -1028.60247        45.427
 21  5 25  0 35  0.0000000  0 10G 5G13G15G16G18G20G23G25G26G29
  22147605.86248 116386548.82348     -2856.80548        46.368    22147605.80045
  90690864.44645     -2226.08645        40.378
  21988337.37548 115549535.40948       326.15248        46.040    21988337.54644
  90038629.36244       254.14144        37.653
  21082367.89448 110788658.54748      1803.69948        47.445    21082368.48346
  86328876.81646      1405.47746        43.082
  24294798.73144 127670017.73544      1043.79744        37.343    24294801.36344
  99483151.78744       813.34444        36.968
  21053204.94748 110635383.66448      1599.04748        47.596    21053205.63146
  86209407.04746      1246.00846        42.325
  20675632.91949 108651265.44449     -1568.20349        48.340    20675632.42546
  84663363.79646     -1221.98046        43.176
  21973107.68448 115469505.86948      2472.71548        46.168    21973108.95345
  89976263.66145      1926.78945        39.730
  25380603.16143 133375963.15943     -3256.64843        36.072    25380609.26442
 103929349.79042     -2537.65242        33.046
  23861069.54345 125390752.12845      -586.76245        40.846    23861072.97242
  97707108.18542      -457.21942        34.095
  20531066.78449 107891539.91649     -1338.07449        48.804    20531066.96447
  84071342.92547     -1042.66047        44.808
 21  5 25  0 35 30.0000000  0 10G 5G13G15G16G18G20G23G25G26G29
  22163932.34948 116472345.23348     -2862.93448        45.848    22163932.50245
  90757718.79445     -2230.85945        40.846
  21986534.50348 115540061.01048       305.68448        46.102    21986534.56844
  90031246.72244       238.19144        37.731
  21072123.54449 110734824.32849      1785.23049        47.884    21072124.37246
  86286928.09946      1391.08646        43.229
  24288896.01345 127638981.66345      1025.09045        40.072    24288894.57642
  99458967.86842       798.77042        34.130
  21044095.26848 110587511.05348      1592.55148        47.676    21044095.81346
  86172103.71246      1240.94546        42.343
  20684614.49449 108698464.10849     -1578.35949        48.018    20684613.89946
  84700141.98046     -1229.89546        42.991
  21959020.15848 115395474.88148      2462.55148        46.369    21959021.25945
  89918577.21245      1918.86745        39.559
  25399180.57843 133473585.86843     -3251.82043        35.049    25399186.45044
 104005419.13144     -2533.90244        37.262
  23864467.40445 125408609.58245      -603.29345        40.818    23864471.21943
  97721023.03343      -470.10543        35.957
  20538756.98249 107931952.04049     -1356.02049        48.794    20538757.21247
  84102832.87747     -1056.64147        44.965
 21  5 25  0 36  0.0000000  0 10G 5G13G15G16G18G20G23G25G26G29
  22180294.74248 116558330.18748     -2869.26648        45.882    22180295.05145
  90824720.05845     -2235.79345        40.898
  21984848.63348 115531200.26848       285.03948        46.305    21984848.37744
  90024342.24644       222.10544        37.543
  21061985.46349 110681548.64349      1766.38749        47.948    21061986.11346
  86245414.59646      1376.40246        42.678
  24283096.40146 127608502.08546      1006.66846        41.555    24283094.68642
  99435217.57142       784.41442        33.927
  21035023.04748 110539835.70448      1585.79348        47.404    21035023.57746
  86134954.08646      1235.68046        42.327
  20693653.51549 108745964.61749     -1588.37549        48.364    20693652.81846
  84737155.35746     -1237.69946        42.626
  21944991.94648 115321756.03748      2452.12148        46.440    21944992.94245
  89861133.98445      1910.74245        38.990
  25417729.35244 133571058.94744     -3246.65244        38.837    25417735.54041
 104081371.94441     -2529.86341        29.790
  23867959.91346 125426961.60746      -619.80946        42.130    23867963.35943
  97735323.33843      -482.97343        34.662
  20546549.76749 107972903.65649     -1374.03549        48.634    20546549.87247
  84134743.22347     -1070.68047        45.230
 21  5 25  0 36 30.0000000  0 10G 5G13G15G16G18G20G23G25G26G29
  22196692.71548 116644501.57948     -2875.42248        46.051    22196692.90545
  90891866.60945     -2240.59045        40.015
  21983279.60348 115522954.14548       264.76248        46.329    21983279.63244
  90017916.69844       206.35944        38.113
  21051954.34849 110628833.98949      1747.74649        47.930    21051954.66846
  86204338.26546      1361.87546        42.687
  24277402.67546 127578579.51246       988.09846        42.983    24277400.72542
  99411901.28542       769.94142        32.310
  21025988.24348 110492358.35748      1579.31648        47.525    21025989.07346
  86097958.77446      1230.63346        42.375
  20702749.67649 108793765.18449     -1598.32449        48.045    20702748.86446
  84774402.54846     -1245.44946        43.152
  21931023.23848 115248350.09248      2441.68448        46.089    21931024.01045
  89803934.56045      1902.60545        39.545
  25436249.25843 133668380.04443     -3241.45743        35.532    25436255.70743
 104157206.27843     -2525.82043        36.212
  23871546.20646 125445806.89146      -636.25846        41.194    23871549.65043
  97750007.94943      -495.78943        35.809
  20554445.15149 108014394.09049     -1391.98449        48.952    20554445.27947
  84167073.41247     -1084.66847        44.948
 21  5 25  0 37  0.0000000  0  9G 5G13G15G16G18G20G23G26G29
  22213125.63748 116730857.14348     -2881.47748        46.685    22213125.76945
  90959156.64745     -2245.30945        40.422
  21981827.35748 115515323.01248       244.04748        46.209    21981827.52444
  90011970.37144       190.16444        38.349
  21042030.26048 110576682.81148      1728.99248        47.572    21042030.41247
  86163701.00447      1347.26247        43.512
  24271814.96946 127549214.75346       969.71146        43.030    24271812.99442
  99389019.64542       755.61742        33.897
  21016991.51149 110445079.84249      1572.50849        48.000    21016992.25546
  86061118.38746      1225.32846        42.732
  20711902.65949 108841864.49749     -1608.34449        48.214    20711902.00246
  84811882.52046     -1253.25846        42.861
  21917113.91448 115175257.72248      2431.27048        46.153    21917115.10445
  89746979.51745      1894.49245        39.898
  23875225.98446 125465144.01446      -652.39846        41.559    23875229.56343
  97765075.81343      -508.36743        36.596
  20562443.04949 108056422.67749     -1409.89849        48.963    20562443.04147
  84199822.95347     -1098.62547        44.788
 21  5 25  0 37 30.0000000  0  9G 5G13G15G16G18G20G23G26G29
  22229593.35148 116817394.99248     -2887.57448        46.336    22229593.18445
  91026588.73145     -2250.06245        40.359
  21980492.27648 115508307.58548       223.57848        46.204    21980492.09744
  90006503.80544       174.21544        37.055
  21032213.76149 110525096.45749      1710.03549        48.120    21032213.66947
  86123503.87347      1332.49247        43.343
  24266333.39946 127520408.79046       950.91046        42.238    24266330.79541
  99366573.41841       740.96541        29.930
  21008032.91848 110398000.91148      1565.78948        47.674    21008033.51646
  86024433.51346      1220.09446        42.242
  20721112.16249 108890260.89949     -1618.22349        48.146    20721111.60746
  84849593.99346     -1260.95746        43.024
  21903264.54748 115102479.69448      2420.69948        45.633    21903265.70845
  89690269.38345      1886.25845        39.311
  23878999.21645 125484971.59145      -669.17245        40.979    23879002.17643
  97780525.88443      -521.43843        34.756
  20570543.21949 108098988.77449     -1427.84049        49.031    20570543.19647
  84232991.32847     -1112.60547        44.618
 21  5 25  0 38  0.0000000  0  9G 5G13G15G16G18G20G23G26G29
  22246095.43248 116904113.29148     -2893.56248        46.101    22246094.96445
  91094161.42345     -2254.72745        40.270
  21979274.47848 115501908.65148       203.03548        45.730    21979274.34644
  90001517.63544       158.20744        37.919
  21022505.18249 110474077.19349      1691.06249        47.802    21022505.02446
  86083748.62546      1317.70746        42.784
  24260957.74045 127492162.45745       932.46145        39.916    24260955.59441
  99344563.30541       726.59041        29.474
  20999112.10248 110351122.32648      1559.41048        47.543    20999112.59246
  85987904.77646      1215.12146        42.551
  20730377.88149 108938952.83649     -1627.90649        48.233    20730377.55646
  84887535.75446     -1268.50046        42.464
  21889475.13448 115030016.68848      2410.14148        45.995    21889476.16245
  89633804.73845      1878.02745        39.840
  23882865.25746 125505288.24546      -685.52346        41.294    23882868.00043
  97796357.05743      -534.17643        34.879
  20578745.49549 108142091.71049     -1445.69949        48.849    20578745.41547
  84266578.01547     -1126.52347        44.852
 21  5 25  0 38 30.0000000  0  9G 5G13G15G16G18G20G23G26G29
  22262631.27948 116991009.99848     -2899.52048        46.105    22262630.82445
  91161873.11145     -2259.36745        39.767
  21978174.07648 115496126.80448       182.43048        45.823    21978174.25144
  89997012.30244       142.14844        38.230
  21012904.77849 110423627.26149      1672.05549        48.136    21012904.62546
  86044437.01946      1302.89846        43.031
  24255688.26744 127464475.61044       913.95744        38.116    24255686.30241
  99322989.15241       712.18041        30.246
  20990229.78449 110304444.94349      1552.50449        47.911    20990230.15246
  85951532.80746      1209.73846        42.720
  20739699.65549 108987938.81549     -1637.78149        48.161    20739699.36046
  84925706.63646     -1276.19546        42.564
  21875745.99048 114957869.45348      2399.53148        45.559    21875746.88945
  89577586.14345      1869.76245        40.709
  23886823.98445 125526092.51445      -701.25845        40.982    23886826.94242
  97812568.13442      -546.43842        33.694
  20587049.65349 108185731.07349     -1463.57449        48.935    20587049.73447
  84300582.68747     -1140.44947        44.498
 21  5 25  0 39  0.0000000  0  9G 5G13G15G16G18G20G23G26G29
  22279200.48548 117078082.31548     -2905.21148        46.033    22279200.17245
  91229721.64445     -2263.80545        39.253
  21977191.34548 115490962.67448       161.84048        46.365    21977191.46644
  89992988.30444       126.10544        36.952
  21003413.22549 110373748.86549      1653.09049        47.840    21003413.28446
  86005570.75346      1288.11746        43.115
  24250524.94544 127437349.42944       895.15244        36.723    24250523.57941
  99301851.85741       697.51641        23.046
  20981385.91548 110257969.53148      1545.73048        47.672    20981386.11046
  85915318.21246      1204.46146        42.371
  20749077.15849 109037217.55249     -1647.58249        48.285    20749076.70046
  84964105.64046     -1283.83246        42.605
  21862077.14848 114886038.66548      2389.07048        46.466    21862078.05345
  89521614.13445      1861.60945        40.184
  23890875.39345 125547383.04545      -717.82445        40.402    23890878.23541
  97829158.15941      -559.34841        31.745
  20595455.75449 108229905.68349     -1481.39149        48.623    20595455.76147
  84335004.45547     -1154.33247        44.750
 21  5 25  0 39 30.0000000  0  9G 5G13G15G16G18G20G23G26G29
  22295802.87948 117165328.38448     -2911.02048        45.738    22295802.42545
  91297705.57945     -2268.33245        39.429
  21976326.24548 115486416.48648       141.16448        45.633    21976325.93444
  89989445.83944       109.99644        38.004
  20994030.73449 110324443.75549      1634.01649        47.839    20994031.13546
  85967151.22046      1273.25446        43.266
  24245469.34945 127410784.66445       876.07445        39.318    24245467.89041
  99281152.06141       682.66041        28.787
  20972580.39548 110211696.84348      1538.94948        47.623    20972580.51546
  85879261.60046      1199.18046        42.584
  20758510.03349 109086787.13549     -1657.15249        48.433    20758509.45146
  85002731.27846     -1291.28946        42.343
  21848468.60648 114814524.96948      2378.45748        46.188    21848469.52145
  89465889.20045      1853.34045        40.045
  23895018.99946 125569158.23646      -733.89146        41.169    23895021.87243
  97846125.80243      -571.86743        35.383
  20603963.48849 108274614.85849     -1499.20349        48.330    20603963.63147
  84369842.75947     -1168.21547        44.950
 21  5 25  0 40  0.0000000  0  9G 5G13G15G16G18G20G23G26G29
  22312437.99048 117252746.96648     -2916.77048        45.861    22312437.78545
  91365823.91645     -2272.81245        39.962
  21975578.80848 115482489.06048       120.64548        46.134    21975578.70044
  89986385.50844        94.00444        37.824
  20984757.80549 110275714.19549      1614.64149        48.105    20984758.31147
  85929180.15047      1258.16047        43.527
  24240521.67646 127384781.85546       857.41846        41.195    24240520.77542
  99260890.11542       668.11342        34.213
  20963813.67648 110165627.74748      1532.10548        47.741    20963813.75446
  85843363.62746      1193.84446        42.574
  20767997.96849 109136646.07649     -1666.77349        48.150    20767997.28846
  85041582.39546     -1298.78946        42.328
  21834920.65448 114743329.10948      2367.95748        46.528    21834921.35345
  89410411.92245      1845.15645        40.585
  23899254.74245 125591416.64145      -749.96545        40.190    23899257.75242
  97863470.01142      -584.39142        34.120
  20612572.81449 108319858.06249     -1516.93049        48.475    20612573.15747
  84405097.19147     -1182.02747        44.180
 21  5 25  0 40 30.0000000  0 10G 5G10G13G15G16G18G20G23G26G29
  22329105.39947 117340335.24547     -2922.25447        45.441    22329105.42545
  91434074.48945     -2277.08645        40.248
  24705457.84944 129828055.04044      3106.00044        37.960    24705462.65341
 101164732.64341      2420.29341        30.950
  21974949.42648 115479180.87548        99.92648        46.674    21974949.72844
  89983807.70644        77.85944        37.784
  20975594.73449 110227562.05549      1595.34449        48.018    20975595.34346
  85891659.02846      1243.12146        43.102
  24235681.29546 127359341.87346       838.78146        42.052    24235679.98743
  99241066.76543       653.59443        34.509
  20955085.80948 110119763.05648      1525.41448        47.591    20955086.01546
  85807624.92746      1188.63346        42.709
  20777540.59649 109186792.87349     -1676.27349        48.212    20777539.91546
  85080657.82046     -1306.19146        42.763
  21821433.37048 114672451.70048      2357.39148        46.976    21821433.79845
  89355182.77845      1836.92645        40.543
  23903581.76245 125614156.78445      -765.97745        39.907    23903585.49343
  97881189.60043      -596.86743        36.172
  20621283.70149 108365634.20049     -1534.87549        48.101    20621283.96347
  84440766.89947     -1196.00847        45.547
 21  5 25  0 41  0.0000000  0 10G 5G10G13G15G16G18G20G23G26G29
  22345804.68048 117428091.23248     -2927.88748        45.845    22345804.75445
  91502455.74745     -2281.47345        40.328
  24687739.60546 129734946.86146      3101.42646        41.810    24687743.47341
 101092180.89141      2416.69141        31.141
  21974437.97848 115476492.35348        79.33248        46.251    21974438.34944
  89981712.78544        61.81244        37.371
  20966541.95649 110179989.26749      1576.18849        48.030    20966542.50346
  85854589.34546      1228.19546        43.283
  24230947.79246 127334464.60446       819.84846        42.482    24230946.57142
  99221681.90142       638.84042        33.848
  20946397.06548 110074103.56148      1518.65248        47.554    20946397.10946
  85772046.11946      1183.36346        42.902
  20787137.66149 109237225.97449     -1685.79749        48.256    20787136.93146
  85119956.33246     -1313.60946        42.420
  21808006.62248 114601893.40448      2346.70748        46.928    21808007.12345
  89300202.31445      1828.60245        40.123
  23908000.22544 125637377.11544      -781.51644        38.853    23908004.42644
  97899283.33844      -608.97744        38.040
  20630095.94949 108411942.72149     -1552.50049        47.931    20630096.10047
  84476851.44647     -1209.74247        44.878
 21  5 25  0 41 30.0000000  0 10G 5G10G13G15G16G18G20G23G26G29
  22362535.91448 117516013.50248     -2933.54748        46.217    22362536.15645
  91570966.57445     -2285.88345        39.830
  24670048.56546 129641978.65346      3096.33646        41.742    24670052.23343
 101019738.20243      2412.72743        35.497
  21974044.32748 115474423.92948        58.46548        46.233    21974044.69744
  89980101.04244        45.55544        37.900
  20957599.85449 110132997.74049      1556.67649        47.948    20957600.24646
  85817972.58746      1212.99246        43.039
  24226321.23646 127310150.95846       801.01646        41.844    24226319.98742
  99202736.21242       624.16442        33.537
  20937747.56949 110028650.10449      1511.77749        47.897    20937747.61646
  85736627.86246      1178.00446        42.266
  20796788.94549 109287943.83849     -1695.25049        48.289    20796788.24846
  85159476.74146     -1320.97746        42.590
  21794640.62948 114531654.87748      2335.97748        46.611    21794641.12245
  89245471.01845      1820.23845        40.786
  23912509.71345 125661076.11345      -798.08645        39.553    23912514.09043
  97917750.07443      -621.88743        35.379
  20639009.40049 108458782.61049     -1570.20749        48.742    20639009.42147
  84513350.04747     -1223.54347        44.118
 21  5 25  0 42  0.0000000  0 10G 5G10G13G15G16G18G20G23G26G29
  22379298.30347 117604099.71947     -2939.02747        45.488    22379298.48845
  91639605.15145     -2290.15645        40.207
  24652383.86446 129549151.17646      3092.22746        41.389    24652388.44242
 100947405.19642      2409.52742        34.190
  21973768.78348 115472975.77448        37.86348        46.089    21973768.88144
  89978972.61744        29.50044        37.580
  20948768.72949 110086589.41249      1537.13349        48.051    20948768.94246
  85781810.26946      1197.76246        43.123
  24221801.72146 127286401.38146       782.35246        41.562    24221800.76141
  99184230.07641       609.62141        29.959
  20929137.50749 109983403.48649      1504.70349        47.902    20929137.53146
  85701370.76446      1172.49246        42.041
  20806494.18749 109338945.05249     -1704.71949        48.378    20806493.56446
  85199217.94246     -1328.35546        42.795
  21781335.46848 114461736.75048      2325.32048        46.069    21781336.06745
  89190989.37245      1811.93445        40.741
  23917110.25545 125685252.12245      -813.53545        40.944    23917114.15244
  97936588.51544      -633.93044        36.769
  20648023.88749 108506153.04849     -1587.84449        48.688    20648023.65947
  84550262.06447     -1237.28547        44.148
 21  5 25  0 42 30.0000000  0 10G 5G10G13G15G16G18G20G23G26G29
  22396091.42248 117692347.43448     -2944.32048        45.629    22396091.26645
  91708369.58545     -2294.27745        40.597
  24634746.40445 129456465.51445      3087.27045        40.445    24634751.61844
 100875182.74144      2405.66444        37.146
  21973611.32348 115472148.68748        17.16048        46.124    21973611.10244
  89978328.14344        13.36744        38.100
  20940048.91449 110040766.22749      1517.74649        48.083    20940048.92846
  85746103.91746      1182.65646        43.323
  24217389.55745 127263216.55445       763.26645        40.076    24217388.91242
  99166164.01742       594.75442        32.389
  20920566.85749 109938364.52949      1497.76649        47.818    20920566.99447
  85666275.49647      1167.08647        43.557
  20816252.99749 109390227.86249     -1714.01649        48.329    20816252.46946
  85239178.57046     -1335.60246        42.947
  21768091.41748 114392139.65148      2314.50048        46.367    21768091.99945
  89136757.90045      1803.50445        39.330
  23921801.59546 125709903.64546      -829.53946        41.291    23921805.42743
  97955797.45943      -646.39843        34.511
  20657139.14249 108554053.33949     -1605.49649        48.761    20657138.78647
  84587586.95147     -1251.03947        44.251
 21  5 25  0 43  0.0000000  0 10G 5G10G13G15G16G18G20G23G26G29
  22412914.95648 117780755.29648     -2949.70348        45.581    22412914.75145
  91777258.81045     -2298.47345        40.307
  24617136.01845 129363922.59245      3082.35545        39.658    24617141.07044
 100803071.45344      2401.83244        38.043
  21973572.23948 115471942.72348        -3.61748        46.542    21973571.71444
  89978167.66944        -2.82044        37.217
  20931440.82649 109995529.99149      1498.06249        48.418    20931440.77346
  85710854.92046      1167.31646        43.220
  24213084.53045 127240597.43945       744.64845        38.936    24213084.19841
  99148538.76441       580.24641        30.618
  20912035.94149 109893534.12049      1490.91849        48.086    20912036.22346
  85631342.72646      1161.75046        42.767
  20826065.12449 109441790.78249     -1723.39149        48.142    20826064.51846
  85279357.46546     -1342.90646        42.908
  21754908.64448 114322864.21748      2303.76648        46.350    21754909.54545
  89082777.07145      1795.14145        40.531
  23926583.00046 125735029.06646      -845.44146        41.216    23926586.52143
  97975375.71043      -658.78943        35.037
  20666354.91449 108602482.31849     -1623.12149        48.430    20666354.50347
  84625323.81147     -1264.77347        44.269
 21  5 25  0 43 30.0000000  0 10G 5G10G13G15G16G18G20G23G26G29
  22429768.30247 117869321.42447     -2954.76247        45.121    22429768.59545
  91846271.34445     -2302.41445        39.871
  24599552.86645 129271523.22045      3077.41445        39.864    24599557.51544
 100731072.10844      2397.98044        37.258
  21973651.36848 115472358.41148       -24.20348        46.320    21973651.11044
  89978491.60744       -18.86344        37.600
  20922944.66049 109950882.49849      1478.47349        47.989    20922944.48047
  85676064.68647      1152.05547        43.867
  24208887.12045 127218543.15745       725.68845        39.278    24208887.38742
  99131353.58542       565.46942        34.373
  20903544.83549 109848913.08849      1483.84449        47.823    20903545.26646
  85596573.10346      1156.23846        42.887
  20835930.45049 109493632.54549     -1732.65649        48.439    20835929.56946
  85319753.64946     -1350.12546        41.916
  21741787.27248 114253911.06848      2292.92248        46.444    21741788.26845
  89029047.38145      1786.68845        41.069
  23931454.12145 125760626.73645      -861.32045        39.696    23931457.80343
  97995321.93343      -671.16043        34.558
  20675671.10149 108651439.09849     -1640.75449        48.759    20675670.67947
  84663471.93447     -1278.51247        43.948
 21  5 25  0 44  0.0000000  0 10G 5G10G13G15G16G18G20G23G26G29
  22446651.55147 117958043.64347     -2960.07847        45.256    22446651.54745
  91915405.52745     -2306.55945        38.930
  24581997.38145 129179268.42245      3072.87145        40.713    24582001.63743
 100659185.39643      2394.38343        35.342
  21973848.71248 115473396.05748       -44.95348        46.309    21973848.43844
  89979300.16944       -35.03144        36.998
  20914560.88649 109906825.71549      1458.70349        48.164    20914560.37446
  85641734.74346      1136.64846        42.433
  24204797.35044 127197054.50044       706.75844        37.616    24204798.14841
  99114609.20541       550.72341        25.215
  20895093.79449 109804502.25649      1476.80149        47.902    20895094.20146
  85561967.26846      1150.75046        42.665
  20845848.37749 109545751.23449     -1741.90649        48.570    20845847.37946
  85360365.61446     -1357.33246        41.927
  21728727.45648 114185280.77548      2282.43848        46.408    21728728.03145
  88975569.25345      1778.52045        41.053
  23936414.63845 125786695.06145      -876.44545        39.810    23936418.65241
  98015634.88541      -682.94941        28.036
  20685087.60149 108700922.87649     -1658.30549        48.802    20685087.06847
  84702030.71347     -1292.18847        43.839
 21  5 25  0 44 30.0000000  0 10G 5G10G13G15G16G18G20G23G26G29
  22463564.06647 118046919.66947     -2965.11747        45.326    22463563.81345
  91984659.57845     -2310.48445        39.013
  24564469.48746 129087159.15046      3067.86346        41.253    24564473.76543
 100587412.06043      2390.54343        36.379
  21974164.38848 115475055.81248       -65.85548        45.594    21974163.96644
  89980593.48544       -51.32044        37.238
  20906289.80949 109863361.43349      1438.85549        48.267    20906289.13446
  85607866.49446      1121.18446        42.869
  24200815.36444 127176132.32944       688.29344        37.031    24200816.96541
  99098306.23241       536.32841        29.549
  20886682.85448 109760302.50048      1469.66448        47.755    20886683.12246
  85527525.90946      1145.19146        42.917
  20855818.58049 109598145.35449     -1751.09449        48.156    20855817.55046
  85401192.21046     -1364.49246        42.386
  21715729.16348 114116973.97648      2271.51648        47.126    21715729.58345
  88922343.20245      1770.00845        40.362
  23941464.20545 125813232.36045      -892.55545        39.743    23941468.41343
  98036313.26743      -695.50043        35.751
  20694604.14649 108750932.60649     -1675.74249        48.483    20694603.66647
  84740999.32147     -1305.77747        44.688
 21  5 25  0 45  0.0000000  0 10G 5G10G13G15G16G18G20G23G26G29
  22480505.51948 118135947.69048     -2970.22748        45.611    22480505.32145
  92054032.06045     -2314.46545        39.267
  24546969.48246 128995196.32846      3062.80146        41.756    24546973.59641
 100515752.75241      2386.59441        31.623
  21974598.37448 115477337.82448       -86.45748        45.974    21974598.19843
  89982371.68343       -67.37143        36.523
  20898131.76849 109820491.13749      1419.10949        48.256    20898131.19946
  85574461.09846      1105.79746        43.052
  24196941.62344 127155776.88844       669.01644        38.096    24196943.78742
  99082444.89542       521.30942        34.142
  20878312.02848 109716314.63148      1462.76248        47.626    20878312.42046
  85493249.66346      1139.81246        43.020
  20865841.00449 109650813.59049     -1760.18449        48.679    20865839.93746
  85442232.39646     -1371.57446        41.409
  21702792.40348 114048991.23448      2260.81648        46.928    21702792.86045
  88869369.67445      1761.67245        40.427
  23946603.16545 125840236.84845      -907.66445        40.214    23946607.19842
  98057355.71542      -707.27342        33.985
  20704220.62149 108801467.13449     -1693.13349        48.801    20704220.25747
  84780376.86647     -1319.32847        43.975
 21  5 25  0 45 30.0000000  0 10G 5G10G13G15G16G18G20G23G26G29
  22497475.63247 118225125.65347     -2975.23447        45.027    22497475.45144
  92123521.38944     -2318.36744        38.844
  24529497.28145 128903380.76745      3057.96145        39.868    24529501.39342
 100444208.21442      2382.82442        32.469
  21975150.86348 115480242.70348      -107.19148        45.720    21975151.09044
  89984635.23544       -83.52744        37.868
  20890087.26449 109778216.86849      1399.27749        48.236    20890086.57946
  85541520.12146      1090.34446        43.097
  24193176.45444 127135988.37944       650.13344        37.294    24193178.11142
  99067025.26742       506.59442        33.884
  20869981.85248 109672539.58748      1455.58648        47.761    20869982.14446
  85459139.23946      1134.21946        41.888
  20875915.32249 109703754.36649     -1769.27349        48.371    20875914.22646
  85483484.95346     -1378.65646        42.290
  21689917.41148 113981333.11648      2249.84848        46.448    21689917.90845
  88816649.10245      1753.12545        40.747
  23951830.52745 125867707.00745      -923.60945        40.821    23951834.78743
  98078760.98243      -719.69943        36.639
  20713936.80849 108852526.05049     -1710.74249        48.788    20713936.67547
  84820163.01547     -1333.05147        44.159
 21  5 25  0 46  0.0000000  0 10G 5G10G13G15G16G18G20G23G26G29
  22514473.90148 118314451.75148     -2980.09848        45.662    22514473.59245
  92193126.12245     -2322.15645        39.458
  24512052.98545 128811713.35545      3053.03945        39.647    24512057.70641
 100372779.16941      2378.86341        29.328
  21975822.02047 115483770.09547      -128.05947        45.474    21975822.23744
  89987383.87144       -99.78944        37.607
  20882156.39049 109736540.26149      1379.13749        48.392    20882155.89546
  85509044.85546      1074.64846        43.014
  24189519.02744 127116767.58944       631.39144        38.055    24189520.49841
  99052048.08541       491.98841        31.876
  20861692.38249 109628978.18149      1448.43849        47.886    20861692.51446
  85425195.28946      1128.64846        42.842
  20886041.15149 109756966.10949     -1778.09049        48.457    20886040.11846
  85524948.64146     -1385.52746        41.740
  21677104.26048 113914000.21948      2238.87548        46.755    21677104.80646
  88764181.96146      1744.57446        41.266
  23957146.63445 125895640.95745      -938.63745        40.805    23957150.73042
  98100527.67342      -731.41042        33.441
  20723752.51749 108904107.99849     -1728.20749        48.716    20723752.49647
  84860356.73347     -1346.65647        44.402
 21  5 25  0 46 30.0000000  0 10G 5G10G13G15G16G18G20G23G26G29
  22531500.05248 118403924.12448     -2984.94148        45.655    22531499.68345
  92262844.85945     -2325.93045        40.029
  24494637.48345 128720195.03945      3047.93845        40.327    24494642.22142
 100301466.33042      2375.01242        34.426
  21976611.91548 115487920.47348      -148.63348        45.628    21976611.67444
  89990617.94044      -115.82044        38.021
  20874339.52749 109695463.16049      1359.20349        47.863    20874339.36847
  85477036.74647      1059.11747        43.540
  24185969.86345 127098114.14545       612.07045        39.567    24185970.75342
  99037512.95442       476.93442        33.991
  20853443.59948 109585631.30648      1441.27048        47.613    20853443.70546
  85391418.50746      1123.06246        42.456
  20896218.27149 109810447.28149     -1787.28549        48.371    20896217.24446
  85566622.28146     -1392.69146        42.579
  21664353.07148 113846993.04048      2228.18848        46.535    21664353.73845
  88711968.63145      1736.24645        40.627
  23962550.19945 125924037.05745      -953.89845        40.889    23962553.89642
  98122654.48942      -743.30142        33.593
  20733667.52049 108956211.93049     -1745.37149        48.555    20733667.43747
  84900957.18547     -1360.03147        44.125
 21  5 25  0 47  0.0000000  0 10G 5G10G13G15G16G18G20G23G26G29
  22548553.56248 118493540.80448     -2989.61348        45.661    22548553.09944
  92332676.03244     -2329.57044        37.854
  24477250.61144 128628826.77044      3043.23044        38.853    24477255.47043
 100230270.32643      2371.34443        35.791
  21977520.52648 115492694.09348      -169.44948        46.163    21977520.12944
  89994337.65444      -132.04344        37.848
  20866637.14149 109654987.07649      1339.19949        48.093    20866637.02947
  85445496.95147      1043.52747        43.417
  24182529.15845 127080028.69345       593.32845        40.620    24182529.32042
  99023420.36642       462.32842        34.153
  20845235.87048 109542499.80748      1434.11348        47.698    20845235.91746
  85357809.56046      1117.48846        42.404
  20906446.19249 109864196.26049     -1795.93849        48.136    20906445.32346
  85608504.58646     -1399.43446        42.257
  21651664.02948 113780312.16448      2217.16848        46.771    21651664.86646
  88660009.55246      1727.66046        41.612
  23968041.64345 125952893.55945      -969.50445        40.441    23968045.03843
  98145140.07443      -755.46143        36.248
  20743681.67249 109008836.73749     -1762.80549        48.583    20743681.51047
  84941963.50947     -1373.61747        44.538
 21  5 25  0 47 30.0000000  0 10G 5G10G13G15G16G18G20G23G26G29
  22565634.11148 118583300.14148     -2994.50448        45.764    22565633.85645
  92402618.34145     -2333.38345        39.207
  24459892.50145 128537609.35645      3038.16045        41.108    24459897.64443
 100159191.97343      2367.50843        36.214
  21978547.65548 115498090.80048      -190.44548        46.586    21978547.24243
  89998542.87343      -148.40243        36.522
  20859049.43748 109615113.86048      1319.14548        47.748    20859049.52647
  85414426.92447      1027.90247        43.590
  24179195.90745 127062511.24245       574.60945        39.855    24179195.45741
  99009770.43641       447.75441        31.968
  20837069.39548 109499584.59348      1427.00848        47.649    20837069.45646
  85324369.13746      1111.94946        43.010
  20916724.88049 109918211.82449     -1805.01249        47.826    20916724.13346
  85650594.63146     -1406.50446        42.067
  21639037.19948 113713958.10148      2206.32448        46.828    21639038.01545
  88608305.15445      1719.21145        40.374
  23973619.83145 125982208.68345      -984.66445        39.300    23973623.59943
  98167983.01143      -767.27343        34.929
  20753794.75049 109061981.27049     -1780.21949        48.774    20753794.46147
  84983374.82547     -1387.18847        43.851
 21  5 25  0 48  0.0000000  0 10G 5G10G13G15G16G18G20G23G26G29
  22582741.48947 118673199.96947     -2998.94147        45.335    22582741.38745
  92472670.15545     -2336.84045        39.979
  24442563.22445 128446543.71245      3032.92245        41.038    24442568.30343
 100088231.84543      2363.31643        35.593
  21979693.23548 115504110.53448      -211.11748        45.861    21979692.89344
  90003233.57544      -164.51244        36.945
  20851576.64349 109575844.94649      1298.93049        48.260    20851577.01546
  85383827.79246      1012.14846        42.986
  24175970.39445 127045562.08545       555.43045        38.990    24175969.37541
  98996563.26341       432.80141        28.327
  20828944.34349 109456886.54149      1419.64549        48.113    20828944.46346
  85291097.94146      1106.21546        42.777
  20927054.10449 109972492.28449     -1813.85249        48.098    20927053.36146
  85692891.07846     -1413.39546        41.686
  21626472.62048 113647931.38448      2195.40648        46.550    21626473.40045
  88556855.79445      1710.70345        40.861
  23979284.82745 126011980.62345      -999.91045        39.383    23979289.38644
  98191181.89344      -779.15244        38.202
  20764006.45949 109115644.48449     -1797.43849        48.395    20764006.26447
  85025190.30447     -1400.60547        43.857
 21  5 25  0 48 30.0000000  0 10G 5G10G13G15G16G18G20G23G26G29
  22599875.19448 118763238.14348     -3003.62148        45.692    22599875.10144
  92542829.74744     -2340.48844        38.357
  24425262.96345 128355630.69245      3027.95345        39.287    24425268.10243
 100017390.63443      2359.44543        35.279
  21980957.34248 115510753.49248      -231.76648        45.776    21980957.21144
  90008409.92344      -180.60244        38.076
  20844219.23249 109537181.72649      1278.68449        48.076    20844219.77847
  85353700.63147       996.37547        43.752
  24172852.92345 127029181.40045       536.61345        39.645    24172852.04142
  98983799.10242       418.13742        33.355
  20820860.86449 109414406.53849      1412.36749        48.011    20820860.89646
  85257996.64846      1100.54346        42.278
  20937433.54249 110027036.14949     -1822.72349        48.026    20937432.77446
  85735392.78646     -1420.30546        41.895
  21613970.51948 113582232.53348      2184.56248        46.717    21613971.28945
  88505661.94445      1702.25445        40.905
  23985037.03746 126042207.58446     -1015.28946        41.657    23985041.47444
  98214735.33544      -791.13744        37.055
  20774316.70549 109169825.31149     -1814.59449        48.389    20774316.56747
  85067409.11447     -1413.97347        43.946
 21  5 25  0 49  0.0000000  0 10G 5G10G13G15G16G18G20G23G26G29
  22617035.05147 118853412.97547     -3007.97747        45.491    22617034.69745
  92613095.83645     -2343.88345        39.016
  24407991.64445 128264871.08645      3022.97745        39.373    24407997.24141
  99946668.96741      2355.56641        30.372
  21982340.12948 115518020.02248      -252.66448        46.263    21982340.06044
  90014072.15544      -196.88344        37.780
  20836977.48349 109499126.02849      1258.44549        48.250    20836977.97746
  85324046.85746       980.60546        43.301
  24169843.98245 127013369.36845       517.55145        40.732    24169843.62842
  98971478.07042       403.28142        33.731
  20812818.83949 109372145.45349      1405.07449        48.001    20812818.79146
  85225065.94546      1094.85946        42.860
  20947862.83249 110081841.70249     -1831.19549        48.354    20947861.91846
  85778098.40946     -1426.91046        41.907
  21601531.08048 113516862.07648      2173.47748        47.132    21601531.91145
  88454723.96245      1693.61345        40.669
  23990875.49545 126072887.71445     -1030.39145        40.884    23990880.16043
  98238641.92043      -802.91043        35.733
  20784725.35849 109224522.79149     -1831.76249        48.479    20784724.95747
  85110030.51547     -1427.35247        44.053
 21  5 25  0 49 30.0000000  0 10G 5G10G13G15G16G18G20G23G26G29
  22634220.47847 118943722.47947     -3012.54747        45.345    22634220.11045
  92683466.85445     -2347.44145        39.025
  24390750.06445 128174265.90345      3017.58245        40.314    24390755.30743
  99876067.59743      2351.35943        35.484
  21983841.57848 115525909.97048      -273.26648        46.076    21983841.41843
  90020220.19043      -212.93843        36.425
  20829851.80049 109461679.38549      1237.98849        48.358    20829852.01546
  85294867.65946       964.66446        43.203
  24166943.54946 126998126.44446       498.48846        41.114    24166943.51443
  98959600.48643       388.43043        34.795
  20804818.61449 109330104.23249      1397.64849        47.795    20804818.70946
  85192306.56046      1089.07446        43.174
  20958341.60249 110136907.89849     -1839.89549        48.265    20958340.63946
  85821007.13446     -1433.68846        41.942
  21589154.11348 113451820.48948      2162.32848        46.671    21589154.79546
  88404042.23946      1684.93046        41.267
  23996799.82746 126104019.25146     -1045.19946        41.123    23996804.00944
  98262900.25244      -814.44544        37.394
  20795232.01649 109279735.59049     -1849.05949        48.642    20795231.67847
  85153053.47147     -1440.82847        44.066
 21  5 25  0 50  0.0000000  0 10G 5G10G13G15G16G18G20G23G26G29
  22651431.08947 119034165.11047     -3016.89147        45.392    22651430.96244
  92753941.61344     -2350.82844        38.773
  24373538.12246 128083815.89746      3012.62546        41.604    24373543.09542
  99805587.16742      2347.49642        33.041
  21985461.45048 115534423.03148      -294.13348        45.701    21985461.33544
  90026853.75044      -229.19944        37.734
  20822842.13849 109424843.33749      1217.62549        48.004    20822842.33346
  85266164.26546       948.79746        43.070
  24164151.60546 126983452.40846       479.67246        41.281    24164150.92842
  98948166.20542       373.76642        33.205
  20796860.42949 109288283.71849      1390.37949        47.994    20796860.68147
  85159719.16347      1083.41047        43.535
  20968869.50649 110192232.58849     -1848.35549        48.011    20968868.56846
  85864117.27146     -1440.28146        41.717
  21576839.65648 113387108.24648      2151.83648        46.451    21576840.66745
  88353617.14445      1676.75445        40.599
  24002809.56745 126135600.23545     -1060.03145        39.899    24002813.55643
  98287508.78443      -826.00043        34.995
  20805836.45849 109335462.44349     -1866.25849        48.324    20805836.32647
  85196476.97647     -1454.23047        43.699
 21  5 25  0 50 30.0000000  0 10G 5G10G13G15G16G18G20G23G26G29
  22668666.65447 119124738.59647     -3021.22747        45.389    22668666.41645
  92824518.34045     -2354.20745        38.966
  24356355.64046 127993521.95846      3007.39146        41.707    24356360.81443
  99735228.35343      2343.42243        35.639
  21987199.68447 115543559.15447      -314.94947        45.349    21987199.87144
  90033972.81144      -245.41844        36.819
  20815948.84149 109388619.61849      1197.35549        47.995    20815948.89546
  85237938.00746       933.00046        43.159
  24161467.62845 126969347.28945       460.89545        41.080    24161466.87942
  98937175.17042       359.13342        34.357
  20788944.48549 109246684.85649      1382.93449        47.991    20788944.71747
  85127304.48347      1077.60547        43.401
  20979446.33548 110247814.76248     -1857.07448        47.728    20979445.47446
  85907428.06146     -1447.07446        41.409
  21564587.90848 113322725.86148      2140.58648        46.469    21564588.92245
  88303449.09145      1667.98445        40.299
  24008904.34145 126167628.90545     -1075.28945        40.385    24008908.45143
  98312466.13743      -837.89543        35.131
  20816538.55849 109391702.24849     -1883.21149        48.366    20816538.43447
  85240300.18347     -1467.44147        43.726
 21  5 25  0 51  0.0000000  0 10G 5G10G13G15G16G18G20G23G26G29
  22685926.79447 119215441.39747     -3025.62547        45.285    22685926.62145
  92895195.83645     -2357.63345        39.692
  24339203.00145 127903384.95745      3001.77045        40.864    24339208.22744
  99664991.78644      2339.03944        37.649
  21989056.54048 115553318.36848      -335.52048        45.883    21989057.05944
  90041577.38444      -261.44544        37.034
  20809172.41649 109353009.37849      1176.75449        48.358    20809172.14446
  85210189.79146       916.94946        42.742
  24158891.78745 126955811.31945       441.44945        40.122    24158890.94142
  98926627.67842       343.98442        32.532
  20781070.87949 109205308.56749      1375.53949        47.847    20781071.17747
  85095063.23047      1071.84447        43.889
  20990071.82849 110303652.69549     -1865.36349        47.841    20990071.11646
  85950938.12446     -1453.53146        41.428
  21552399.01748 113258673.79448      2129.38748        46.240    21552399.80946
  88253538.42546      1659.25846        41.861
  24015084.13045 126200103.28045     -1089.77345        40.228    24015087.74142
  98337770.81742      -849.17642        34.426
  20827337.94249 109448453.71949     -1900.27049        48.010    20827337.86647
  85284522.09347     -1480.73447        43.732
 21  5 25  0 51 30.0000000  0 10G 5G10G13G15G16G18G20G23G26G29
  22703211.08947 119306271.32947     -3029.85547        45.149    22703211.33245
  92965972.37745     -2360.93045        39.944
  24322080.27245 127813405.61445      2996.72345        39.673    24322085.80543
  99594878.16443      2335.10943        35.664
  21991032.24848 115563700.91348      -356.45748        45.883    21991032.63144
  90049667.70344      -277.76244        37.771
  20802513.16849 109318014.19349      1156.28949        48.426    20802512.88447
  85182920.83747       901.00047        43.409
  24156423.96545 126942844.51845       422.74245        39.295    24156423.62641
  98916523.66241       329.40641        31.877
  20773239.64449 109164155.72649      1368.04349        47.905    20773240.09147
  85062996.10647      1066.00447        43.379
  21000745.84949 110359745.02949     -1873.92249        48.047    21000745.09246
  85994646.41546     -1460.20346        41.221
  21540273.47648 113194952.52448      2118.41048        47.141    21540273.97645
  88203885.50545      1650.70745        40.953
  24021348.40745 126233021.49945     -1104.86745        40.872    24021351.84742
  98363421.35842      -860.93842        33.782
  20838234.49249 109505715.74849     -1917.21149        48.583    20838234.63247
  85329141.84247     -1493.93447        43.369
 21  5 25  0 52  0.0000000  0 10G 5G10G13G15G16G18G20G23G26G29
  22720519.21947 119397226.74747     -3034.01247        44.783    22720519.64045
  93036846.70045     -2364.16845        39.983
  24304987.84745 127723584.82845      2991.16845        39.057    24304992.76444
  99524888.01744      2330.77744        37.114
  21993126.63548 115574706.31548      -377.23848        45.867    21993127.18944
  90058243.33944      -293.95744        38.398
  20795971.23349 109283635.24749      1135.78949        48.265    20795971.06847
  85156132.06947       885.02747        43.450
  24154064.17545 126930446.96145       403.57445        39.602    24154064.15042
  98906863.27542       314.46942        32.789
  20765451.19649 109123227.24749      1360.50849        48.071    20765451.54846
  85031103.81146      1060.13346        42.965
  21011468.08249 110416090.20949     -1882.40249        47.915    21011467.16446
  86038551.75346     -1466.80946        41.643
  21528210.92348 113131562.50948      2107.37548        46.992    21528211.29246
  88154490.70746      1642.10546        41.274
  24027696.63845 126266381.61345     -1119.38345        41.023    24027699.98043
  98389416.23943      -872.25043        35.271
  20849228.00049 109563487.11449     -1934.19549        48.375    20849228.23047
  85374158.46947     -1507.16847        44.064
 21  5 25  0 52 30.0000000  0 10G 5G10G13G15G16G18G20G23G26G29
  22737850.80047 119488305.79047     -3038.04747        44.607    22737851.65545
  93107817.36045     -2367.31245        39.002
  24287926.12046 127633923.40346      2986.01246        41.380    24287930.56143
  99455022.09843      2326.75843        35.147
  21995339.49448 115586334.23748      -397.97348        45.694    21995340.13844
  90067304.06844      -310.11344        38.853
  20789546.63949 109249873.94849      1115.08649        48.590    20789546.57247
  85129824.58547       868.89547        43.342
  24151812.85745 126918618.37745       384.50445        39.591    24151813.75942
  98897646.20342       299.60942        33.197
  20757705.75449 109082524.08949      1353.03149        48.110    20757705.87046
  84999387.07146      1054.30946        43.169
  21022238.02849 110472686.50249     -1890.59849        47.976    21022237.04245
  86082652.74945     -1473.19545        40.616
  21516211.41348 113068504.17348      2096.44548        47.344    21516211.85545
  88105354.36345      1633.59045        40.137
  24034128.65046 126300181.72146     -1133.84446        41.682    24034131.99343
  98415753.94643      -883.52043        34.554
  20860318.23849 109621766.45549     -1951.06649        48.323    20860318.58747
  85419570.93147     -1520.31647        43.644
 21  5 25  0 53  0.0000000  0 10G 5G10G13G15G16G18G20G23G26G29
  22755205.73347 119579506.56347     -3042.13747        44.969    22755206.66545
  93178882.88245     -2370.50045        40.082
  24270894.62845 127544422.21445      2980.44945        40.563    24270899.08142
  99385280.97942      2322.42242        34.017
  21997670.90748 115598584.57248      -418.71548        45.851    21997671.07844
  90076849.79544      -326.21544        37.587
  20783239.89349 109216731.95449      1094.31649        48.162    20783240.00147
  85103999.67647       852.71147        43.642
  24149669.94745 126907358.99545       365.84445        40.363    24149670.60841
  98888872.67341       285.07041        32.177
  20750003.21549 109042047.14949      1345.52049        47.891    20750003.16546
  84967846.60346      1048.45346        43.150
  21033055.53149 110529532.79949     -1899.09849        47.991    21033054.27745
  86126948.55545     -1479.82045        41.022
  21504275.21048 113005777.95148      2085.50448        46.906    21504275.37446
  88056476.80546      1625.06646        41.308
  24040644.10945 126334419.79945     -1148.17645        40.009    24040647.51644
  98442432.92644      -894.69144        36.968
  20871504.84349 109680552.45649     -1968.13749        48.483    20871505.23847
  85465378.19447     -1533.61747        44.073
 21  5 25  0 53 30.0000000  0 10G 5G10G13G15G16G18G20G23G26G29
  22772583.85647 119670827.83347     -3046.10547        44.647    22772584.55844
  93250042.29444     -2373.59444        38.565
  24253893.73045 127455082.01345      2975.22745        39.936    24253898.28041
  99315665.31741      2318.35541        31.825
  22000120.57448 115611457.10248      -439.54348        46.046    22000120.38444
  90086880.35044      -342.50444        37.940
  20777051.16649 109184210.27149      1073.65649        48.083    20777051.28047
  85078658.11847       836.61347        43.622
  24147635.87045 126896668.92245       347.12545        40.142    24147636.50141
  98880542.75341       270.48441        30.986
  20742343.74748 109001797.36348      1337.91848        47.453    20742343.93546
  84936483.13346      1042.53146        43.109
  21043920.32749 110586627.44949     -1907.23849        47.890    21043919.01245
  86171437.86945     -1486.16445        40.993
  21492402.03048 112943384.32348      2074.13748        46.991    21492402.64045
  88007858.41945      1616.20745        40.931
  24047242.38145 126369093.94345     -1162.52745        40.191    24047246.05143
  98469451.70343      -905.86743        35.183
  20882787.57649 109739843.85349     -1984.77049        48.388    20882788.04147
  85511579.27147     -1546.57847        43.828
 21  5 25  0 54  0.0000000  0 10G 5G10G13G15G16G18G20G23G26G29
  22789984.07547 119762266.99147     -3050.00847        44.067    22789984.46944
  93321293.56244     -2376.63344        38.308
  24236923.43145 127365903.63945      2969.42245        39.638    24236927.82142
  99246175.74642      2313.83242        33.374
  22002688.61648 115624951.68548      -460.08648        46.271    22002688.10744
  90097395.62244      -358.51244        38.128
  20770980.82249 109152310.51749      1052.83649        48.031    20770980.91047
  85053801.18647       820.38747        43.759
  24145709.74545 126886547.76545       328.46145        39.664    24145710.31441
  98872656.13941       255.94141        30.890
  20734727.70149 108961775.66349      1330.20749        47.972    20734728.01046
  84905297.39046      1036.52346        42.534
  21054832.12349 110643968.92449     -1915.51649        48.125    21054830.88745
  86216119.53045     -1492.61345        40.890
  21480592.01048 112881323.59048      2063.06248        46.355    21480593.04646
  87959499.44246      1607.57846        41.678
  24053923.32445 126404202.14445     -1177.61345        40.617    24053926.98743
  98496808.72843      -917.62543        35.842
  20894166.29749 109799639.44249     -2001.59049        48.023    20894166.72447
  85558173.22547     -1559.68447        44.206
 21  5 25  0 54 30.0000000  0 10G 5G10G13G15G16G18G20G23G26G29
  22807406.39547 119853822.45547     -3053.73447        44.524    22807406.79745
  93392635.46245     -2379.53545        39.755
  24219984.26845 127276887.88145      2964.55545        40.556    24219988.41842
  99176812.88442      2310.03942        32.971
  22005374.85348 115639068.01548      -480.86748        46.178    22005374.35944
  90108395.37844      -374.70344        36.751
  20765029.04049 109121034.10649      1032.16449        48.230    20765029.33647
  85029429.97347       804.28147        43.616
  24143892.39545 126876995.29145       308.54745        40.960    24143892.66542
  98865212.61942       240.42242        33.028
  20727155.34949 108921983.02149      1322.53549        47.814    20727155.48646
  84874290.12546      1030.54346        42.543
  21065790.72349 110701556.11849     -1923.54749        47.804    21065789.53846
  86260992.65446     -1498.87146        41.341
  21468845.52648 112819596.27148      2052.13748        46.964    21468846.67746
  87911400.24546      1599.06246        41.205
  24060686.23945 126439742.33945     -1191.66045        41.011    24060689.41842
  98524502.38242      -928.57042        34.148
  20905640.61149 109859937.66449     -2018.44549        48.376    20905641.08546
  85605158.83646     -1572.81646        43.190
 21  5 25  0 55  0.0000000  0 10G 5G10G13G15G16G18G20G23G26G29
  22824850.64647 119945492.53947     -3057.67647        44.344    22824851.09644
  93464066.66444     -2382.60944        37.656
  24203076.32946 127188035.51046      2959.04346        41.645    24203080.11442
  99107577.38342      2305.75042        33.898
  22008179.32148 115653805.80148      -501.57048        46.083    22008179.10044
  90119879.37744      -390.83644        37.314
  20759196.20749 109090382.12849      1011.30149        48.295    20759196.55547
  85005545.32747       788.02347        43.733
  24142183.16545 126868011.24245       289.97745        40.516    24142183.08443
  98858212.11043       225.95343        35.076
  20719626.82949 108882420.33549      1314.90649        47.903    20719626.83246
  84843462.05746      1024.59846        42.073
  21076795.62349 110759387.12849     -1931.81249        47.870    21076794.39846
  86306055.78046     -1505.31246        41.528
  21457162.59448 112758202.74848      2040.79748        46.691    21457163.65545
  87863561.16145      1590.22745        40.304
  24067530.87445 126475712.56845     -1205.97345        39.635    24067535.04244
  98552531.11944      -939.72344        36.747
  20917210.60849 109920737.26449     -2034.97749        48.353    20917210.61446
  85652535.13046     -1585.69946        43.185
 21  5 25  0 55 30.0000000  0 10G 5G10G13G15G16G18G20G23G26G29
  22842316.25047 120037275.09247     -3061.33647        44.304    22842316.57744
  93535585.52344     -2385.46144        38.740
  24186199.68446 127099347.41846      2953.40646        41.812    24186203.43544
  99038469.83744      2301.35544        36.860
  22011102.02948 115669164.23448      -522.21148        46.049    22011101.97244
  90131846.98644      -406.92244        37.523
  20753482.44449 109060355.71449       990.44549        48.329    20753482.72447
  84982148.12447       771.77347        43.726
  24140581.91645 126859596.12745       271.16445        40.129    24140581.64042
  98851654.86442       211.29342        34.223
  20712142.25649 108843088.57149      1307.16049        47.926    20712142.33746
  84812813.92446      1018.56246        42.713
  21087846.69649 110817460.68749     -1939.71549        47.816    21087845.47046
  86351307.90446     -1511.46946        41.413
  21445543.36548 112697143.36348      2029.62948        46.938    21445543.92945
  87815982.43345      1581.52745        40.836
  24074457.20745 126512110.79245     -1220.20745        40.023    24074461.67543
  98580893.35343      -950.81243        34.731
  20928875.70949 109982036.87649     -2051.66449        48.151    20928875.35646
  85700301.05346     -1598.70346        43.127
 21  5 25  0 56  0.0000000  0 10G 5G10G13G15G16G18G20G23G26G29
  22859803.17747 120129168.81147     -3064.75047        43.870    22859803.32645
  93607190.99945     -2388.12145        39.754
  24169353.90845 127010824.23845      2947.79745        40.437    24169358.11143
  98969490.82043      2296.98043        36.022
  22014142.75248 115685143.52048      -542.98848        46.196    22014142.71744
  90144298.39344      -423.10944        37.672
  20747887.82249 109030956.11249       969.53549        48.233    20747888.21147
  84959239.35547       755.48047        43.748
  24139088.96946 126851749.24046       252.09446        41.312    24139088.56742
  98845540.40242       196.43442        34.072
  20704701.87048 108803988.71648      1299.43848        47.749    20704702.14946
  84782346.50346      1012.54746        43.170
  21098943.45549 110875774.92549     -1947.89849        47.911    21098942.27146
  86396747.56646     -1517.84846        41.161
  21433988.03948 112636418.54648      2018.62548        47.627    21433988.29245
  87768664.41745      1572.95345        39.690
  24081464.74645 126548934.92145     -1234.92245        39.943    24081468.56243
  98609587.47543      -962.28143        35.548
  20940635.44049 110043834.97449     -2068.35549        48.482    20940635.21147
  85748455.38347     -1611.70747        43.340
 21  5 25  0 56 30.0000000  0 10G 5G10G13G15G16G18G20G23G26G29
  22877310.87247 120221172.49147     -3068.56247        44.044    22877311.21644
  93678882.15044     -2391.09044        37.933
  24152539.67445 126922466.76245      2942.59845        40.139    24152544.30144
  98900640.93344      2292.93444        36.721
  22017301.45548 115701742.97648      -563.82448        45.706    22017301.47644
  90157233.03644      -439.34844        37.146
  20742412.65549 109002184.39149       948.56649        48.261    20742413.12947
  84936819.85247       739.14147        43.752
  24137704.18945 126844470.37345       233.14145        40.990    24137703.30443
  98839868.55143       181.66443        35.277
  20697305.79849 108765121.71549      1291.70349        47.855    20697306.14047
  84752060.53447      1006.52047        43.429
  21110085.67548 110934328.65348     -1955.73448        47.661    21110084.63145
  86442373.85445     -1523.95345        40.782
  21422496.50448 112576028.68848      2007.32048        47.414    21422496.25745
  87721607.39145      1564.14145        40.156
  24088552.70544 126586182.89444     -1248.30944        38.193    24088556.34143
  98638611.85543      -972.71143        36.106
  20952490.01549 110106130.32949     -2084.74249        48.380    20952489.66347
  85796997.21247     -1624.47747        43.354
 21  5 25  0 57  0.0000000  0 10G 5G10G13G15G16G18G20G23G26G29
  22894838.99847 120313283.31847     -3072.09047        44.267    22894839.18344
  93750656.79244     -2393.84044        38.508
  24135757.32045 126834275.88245      2936.94945        40.507    24135761.98244
  98831920.85244      2288.52744        37.567
  22020578.12348 115718962.34048      -584.22348        45.742    22020578.22245
  90170650.72745      -455.24245        38.913
  20737057.30949 108974041.92549       927.76649        48.409    20737057.89947
  84914890.68547       722.93047        44.619
  24136427.13845 126837759.47145       214.16445        40.558    24136426.26441
  98834639.30441       166.87941        31.046
  20689954.26249 108726488.51249      1283.90249        48.118    20689954.46346
  84721956.73346      1000.44146        43.035
  21121273.20048 110993120.38848     -1963.62548        47.563    21121272.44646
  86488185.58346     -1530.10246        41.505
  21411068.63148 112515974.09348      1996.20748        47.554    21411068.23645
  87674811.61945      1555.48445        40.829
  24095720.28644 126623852.71844     -1262.60544        37.399    24095725.00943
  98667964.91643      -983.85543        36.175
  20964438.78649 110168921.47449     -2101.31249        48.364    20964438.37846
  85845925.36746     -1637.39146        43.320
 21  5 25  0 57 30.0000000  0 10G 5G10G13G15G16G18G20G23G26G29
  22912387.38347 120405499.93747     -3075.92647        44.618    22912387.46344
  93822513.88144     -2396.82844        37.517
  24119006.94445 126746252.33645      2931.33245        40.152    24119011.40241
  98763331.15141      2284.15241        30.913
  22023972.67648 115736801.08148      -604.93848        45.612    22023972.85244
  90184551.06044      -471.38344        37.813
  20731821.94249 108946529.63449       906.64849        48.228    20731822.50547
  84893452.54647       706.47747        44.027
  24135257.89645 126831616.36945       195.37945        40.048    24135257.30643
  98829852.47543       152.23843        35.038
  20682647.46249 108688090.07849      1276.02049        47.982    20682647.48247
  84692035.88147       994.29747        43.569
  21132505.84648 111052148.74148     -1971.50448        47.590    21132505.22546
  86534181.70446     -1536.23846        41.187
  21399704.57848 112456255.15448      1985.18848        47.131    21399704.10645
  87628277.39045      1546.89545        40.545
  24102968.38345 126661942.18645     -1276.42645        39.354    24102972.97143
  98697645.00443      -994.62143        36.076
  20976481.60149 110232206.89149     -2117.73049        48.231    20976481.38546
  85895238.66146     -1650.18446        43.025
 21  5 25  0 58  0.0000000  0 10G 5G10G13G15G16G18G20G23G26G29
  22929955.40847 120497820.31147     -3079.10947        44.406    22929955.35944
  93894451.83944     -2399.30944        38.543
  24102288.67146 126658396.80346      2925.74646        41.632    24102292.66143
  98694872.35043      2279.80143        34.525
  22027485.04948 115755258.82748      -625.61348        46.075    22027485.14244
  90198933.71544      -487.49244        37.633
  20726706.64449 108919648.79349       885.57449        48.580    20726706.98047
  84872506.44347       690.05547        43.731
  24134196.28644 126826040.94844       176.40244        38.716    24134196.43741
  98825508.02541       137.45341        31.703
  20675385.35349 108649927.37249      1268.13349        47.882    20675385.26147
  84662298.71047       988.15247        43.598
  21143783.28848 111111412.15648     -1979.45748        47.596    21143782.65945
  86580360.98045     -1542.43845        40.668
  21388404.00848 112396872.20648      1973.79348        47.029    21388403.94245
  87582004.99545      1538.01645        40.311
  24110296.30945 126700449.19245     -1290.59045        39.938    24110301.04644
  98727650.45244     -1005.65644        37.155
  20988618.16049 110295985.01649     -2134.13749        48.125    20988618.14447
  85944935.87547     -1662.96947        43.763
 21  5 25  0 58 30.0000000  0 10G 5G10G13G15G16G18G20G23G26G29
  22947542.80547 120590242.84847     -3082.47747        44.341    22947542.77944
  93966469.38044     -2401.93444        38.507
  24085602.69246 126570710.10746      2920.25046        42.254    24085606.43342
  98626545.09342      2275.51642        33.699
  22031115.19048 115774335.16148      -646.24248        46.235    22031115.21244
  90213798.39144      -503.57044        37.309
  20721711.74249 108893400.35549       864.37549        48.390    20721711.86947
  84852053.12747       673.53547        43.582
  24133242.47645 126821032.30545       157.65645        39.400    24133243.36942
  98821605.20942       122.85242        32.744
  20668168.14949 108612001.36349      1260.16849        47.853    20668168.31947
  84632745.98747       981.94547        43.587
  21155105.29149 111170909.34449     -1986.99649        47.975    21155104.46545
  86626722.41745     -1548.31245        40.641
  21377167.58748 112337825.59948      1962.48448        46.789    21377167.89745
  87535994.66545      1529.20745        39.960
  24117703.39645 126739371.65345     -1304.35545        40.305    24117708.05444
  98757979.59844     -1016.38344        37.132
  21000848.30849 110360254.34649     -2150.52749        48.368    21000848.10947
  85995015.85847     -1675.73847        43.550
 21  5 25  0 59  0.0000000  0 10G 5G10G13G15G16G18G20G23G26G29
  22965149.43547 120682765.81447     -3085.62547        43.998    22965149.38845
  94038565.19045     -2404.38745        38.897
  24068948.88746 126483192.92046      2914.60946        41.800    24068952.64644
  98558349.94944      2271.12144        37.351
  22034862.84548 115794029.03448      -666.72348        45.902    22034862.96144
  90229144.26744      -519.52744        37.554
  20716837.24349 108867785.33949       843.40249        48.148    20716837.41947
  84832093.39747       657.19547        43.445
  24132396.97545 126816590.32645       138.58645        39.851    24132398.07344
  98818143.92744       107.98444        36.729
  20660996.15248 108574313.04348      1252.31248        47.710    20660996.77847
  84603378.47447       975.82447        44.298
  21166471.60649 111230638.71549     -1994.85949        47.902    21166470.52745
  86673264.77645     -1554.43845        40.654
  21365995.25948 112279115.64048      1951.35248        46.841    21365995.42945
  87490246.67945      1520.53145        40.730
  24125189.12045 126778707.38245     -1318.28145        40.928    24125193.45642
  98788630.79442     -1027.23442        34.223
  21013171.64449 110425013.60349     -2166.84049        48.356    21013171.43847
  86045477.60147     -1688.44947        43.369
 21  5 25  0 59 30.0000000  0 10G 5G10G13G15G16G18G20G23G26G29
  22982774.92347 120775388.09947     -3089.03547        44.200    22982774.65544
  94110738.40144     -2407.04344        38.669
  24052327.36646 126395846.07446      2908.46946        41.797    24052331.47942
  98490287.54442      2266.33642        33.950
  22038728.01748 115814340.40548      -687.21148        46.063    22038728.10543
  90244971.30743      -535.49243        36.649
  20712083.56049 108842804.95249       822.12549        48.094    20712083.65847
  84812628.16947       640.61347        44.031
  24131659.89645 126812714.95745       119.80545        40.363    24131660.54842
  98815124.15842        93.35242        32.779
  20653869.66249 108536863.37249      1244.35249        47.942    20653870.43247
  84574196.93247       969.62147        43.927
  21177881.75949 111290598.69149     -2002.39849        47.809    21177880.53745
  86719986.82345     -1560.31245        40.931
  21354887.17748 112220742.66948      1940.09048        46.600    21354887.73646
  87444761.26846      1511.75446        41.244
  24132753.22546 126818454.20846     -1331.64546        41.584    24132757.05044
  98819602.34344     -1037.64844        37.546
  21025587.86049 110490261.17449     -2183.09049        48.296    21025587.61147
  86096319.85047     -1701.11347        43.627
 21  5 25  1  0  0.0000000  0 10G 5G10G13G15G16G18G20G23G26G29
  23000418.77147 120868107.32647     -3092.32847        43.813    23000418.67945
  94182987.12645     -2409.60945        39.752
  24035738.15446 126308670.15046      2903.62146        41.529    24035742.64843
  98422358.31143      2262.55943        36.200
  22042710.43448 115835268.30948      -707.89148        45.624    22042710.28544
  90261278.77544      -551.60544        37.942
  20707450.94549 108818459.94349       800.89549        48.684    20707450.82047
  84793658.04847       624.07047        43.359
  24131030.36545 126809405.45945       100.78145        40.020    24131031.03941
  98812545.31141        78.52741        31.245
  20646788.77349 108499653.33949      1236.37549        47.893    20646789.62247
  84545202.11647       963.40647        43.411
  21189335.47549 111350788.17349     -2010.11349        47.784    21189334.22945
  86766887.70845     -1566.32445        40.200
  21343843.31548 112162706.96948      1928.78948        47.159    21343844.29446
  87399538.69046      1502.94946        41.951
  24140394.80446 126858609.97646     -1345.11346        41.819    24140398.36243
  98850892.53743     -1048.14543        34.859
  21038096.56849 110555995.36449     -2199.20349        48.246    21038096.45246
  86147541.27546     -1713.66846        43.306
 21  5 25  1  0 30.0000000  0 10G 5G10G13G15G16G18G20G23G26G29
  23018080.84347 120960922.21247     -3095.37547        44.159    23018080.89944
  94255310.40144     -2411.98444        37.533
  24019181.44346 126221666.08646      2897.37146        41.510    24019186.23644
  98354563.03044      2257.68844        37.975
  22046810.11448 115856812.44448      -728.49248        46.095    22046809.64343
  90278066.42443      -567.64843        36.237
  20702939.52849 108794751.41649       779.74249        48.586    20702939.19847
  84775183.87747       607.59047        43.881
  24130508.52445 126806661.55545        81.82045        40.650    24130508.78542
  98810407.22542        63.75442        33.058
  20639753.60449 108462683.94949      1228.15249        47.918    20639754.31546
  84516394.82146       957.00046        43.303
  21200832.54349 111411205.26449     -2017.73449        47.934    21200831.26745
  86813965.94845     -1572.26645        40.696
  21332863.91848 112105008.88048      1917.50848        47.168    21332864.79946
  87354579.16446      1494.16046        41.434
  24148113.68646 126899172.55346     -1358.92646        41.325    24148117.14743
  98882499.72043     -1058.90643        34.866
  21050697.59849 110622214.75249     -2215.47349        48.013    21050697.58947
  86199140.78947     -1726.34447        43.569
 21  5 25  1  1  0.0000000  0 10G 5G10G13G15G16G18G20G23G26G29
  23035760.65747 121053830.68147     -3098.45347        43.728    23035760.64144
  94327706.60244     -2414.38344        37.636
  24002658.07946 126134834.49046      2891.68046        43.013    24002662.37144
  98286902.09044      2253.25444        36.899
  22051026.84548 115878971.87948      -748.89848        45.719    22051026.20444
  90295333.50644      -583.55944        38.107
  20698549.27549 108771680.33549       758.39549        48.447    20698549.06547
  84757206.43547       590.95347        43.932
  24130094.28245 126804482.68845        63.07045        40.293    24130094.39041
  98808709.42041        49.14141        31.963
  20632764.54249 108425956.15749      1220.29749        48.002    20632765.07946
  84487775.77546       950.87946        43.319
  21212372.67148 111471848.82148     -2025.14148        47.542    21212371.51946
  86861220.64746     -1578.03546        41.178
  21321948.66548 112047648.64648      1906.34048        47.355    21321949.59246
  87309882.91446      1485.45746        41.526
  24155909.30646 126940139.71046     -1372.34846        41.193    24155912.70443
  98914422.13543     -1069.36343        34.769
  21063390.67049 110688917.71249     -2231.50049        47.960    21063390.81647
  86251117.10847     -1738.83647        43.745
 21  5 25  1  1 30.0000000  0 10G 5G10G13G15G16G18G20G23G26G29
  23053457.99746 121146830.94646     -3101.65246        43.211    23053457.69544
  94400174.33244     -2416.87544        38.322
  23986167.68746 126048176.09846      2885.69946        41.934    23986171.66344
  98219376.12944      2248.59444        37.804
  22055360.60148 115901746.05948      -769.55948        45.970    22055359.94444
  90313079.64644      -599.66044        36.989
  20694280.42849 108749247.49249       737.00449        48.579    20694280.36547
  84739726.30247       574.28547        43.736
  24129787.26945 126802868.63445        44.16845        40.769    24129786.91742
  98807451.68742        34.41442        33.521
  20625821.73649 108389470.98549      1212.19149        48.216    20625822.18847
  84459345.79547       944.56247        43.636
  21223955.44348 111532717.52048     -2032.67248        47.234    21223954.44846
  86908650.80346     -1583.90246        41.407
  21311097.66348 111990626.59348      1895.12548        47.016    21311098.51446
  87265450.17246      1476.71946        41.880
  24163781.79046 126981509.17746     -1385.73446        41.627    24163784.77043
  98946658.08043     -1079.79743        35.609
  21076175.50749 110756102.85549     -2247.44949        48.128    21076175.79947
  86303469.14247     -1751.26247        43.362
 21  5 25  1  2  0.0000000  0 10G 5G10G13G15G16G18G20G23G26G29
  23071172.40047 121239921.47547     -3104.68447        43.405    23071171.99943
  94472712.39943     -2419.23843        36.309
  23969710.30846 125961691.56046      2880.10946        41.808    23969714.32944
  98151985.64544      2244.23844        37.113
  22059811.16148 115925134.51048      -789.92648        45.680    22059810.65644
  90331304.40844      -615.53144        37.654
  20690133.17349 108727453.75849       715.80949        48.408    20690133.25347
  84722744.18447       557.77047        43.682
  24129587.66745 126801818.91145        25.24245        41.038    24129587.08042
  98806633.74442        19.66842        32.994
  20618925.35949 108353229.42849      1204.02049        48.473    20618925.59646
  84431105.63346       938.19546        43.260
  21235580.73748 111593809.69248     -2040.03948        47.338    21235579.86446
  86956255.08946     -1589.64546        41.152
  21300311.12748 111933942.96348      1883.78948        47.428    21300311.86446
  87221281.14346      1467.88346        41.560
  24171730.24745 127023278.74645     -1398.56245        41.062    24171733.32243
  98979205.76143     -1089.79343        36.233
  21089051.86049 110823768.26649     -2263.49249        48.234    21089052.08746
  86356195.42546     -1763.76246        43.006
 21  5 25  1  2 30.0000000  0 10G 5G10G13G15G16G18G20G23G26G29
  23088904.05547 121333101.02947     -3107.44547        43.558    23088903.40044
  94545319.83344     -2421.39144        38.189
  23953285.99546 125875381.63846      2873.84046        41.789    23953289.82443
  98084731.23343      2239.35243        35.608
  22064378.52348 115949136.31948      -810.18048        45.868    22064378.28444
  90350007.10544      -631.31244        38.358
  20686107.69849 108706300.08749       694.43049        48.404    20686107.79247
  84706260.81047       541.10947        44.179
  24129495.12946 126801332.73346         6.66046        41.129    24129494.83843
  98806254.91243         5.18843        35.992
  20612075.52549 108317232.49249      1195.77749        48.391    20612075.19946
  84403056.08746       931.77046        43.194
  21247248.31048 111655124.00748     -2047.53548        47.566    21247247.76745
  87004032.46545     -1595.48445        40.735
  21289589.12848 111877598.03548      1872.48048        47.413    21289589.78545
  87177376.02945      1459.07445        40.438
  24179754.18145 127065446.28845     -1412.17245        40.904    24179757.58642
  99012063.55342     -1100.39842        32.564
  21102019.33249 110891912.19249     -2279.44949        48.153    21102019.35046
  86409294.57546     -1776.19946        42.693
 21  5 25  1  3  0.0000000  0 10G 5G10G13G15G16G18G20G23G26G29
  23106652.19846 121426367.84046     -3110.43446        43.220    23106651.69943
  94617995.24943     -2423.71943        36.040
  23936895.00246 125789247.01046      2868.19946        42.285    23936898.96143
  98017613.42943      2234.95743        35.765
  22069062.86648 115973750.91948      -830.72748        46.186    22069062.34044
  90369187.32944      -647.32444        36.752
  20682204.17549 108685787.35349       673.00849        48.216    20682204.20547
  84690276.87047       524.41847        44.030
  24129509.43245 126801409.53545       -11.87545        40.800    24129509.16843
  98806314.76543        -9.25843        35.779
  20605272.35149 108281481.16849      1187.50849        48.291    20605271.69846
  84375197.92646       925.32846        42.999
  21258958.04848 111716658.94648     -2054.77048        47.139    21258957.62045
  87051981.76245     -1601.12145        40.858
  21278931.41748 111821592.06248      1861.10948        46.961    21278932.00846
  87133735.05446      1450.21146        42.107
  24187853.28445 127108009.34945     -1425.21545        39.869    24187856.77743
  99045229.57343     -1110.55943        34.857
  21115077.49549 110960533.27949     -2295.34049        48.304    21115077.55746
  86462765.53346     -1788.57846        42.991
 21  5 25  1  3 30.0000000  0 10G 5G10G13G15G16G18G20G23G26G29
  23124416.62547 121519720.01847     -3113.03147        43.614    23124416.02445
  94690737.20045     -2425.74245        39.130
  23920537.82546 125703288.41446      2862.40246        42.949    23920541.80444
  97950632.75244      2230.44144        37.136
  22073863.59048 115998977.31048      -850.96148        46.834    22073862.38743
  90388844.24843      -663.09043        35.693
  20678422.68849 108665916.14949       651.66449        48.400    20678422.74847
  84674792.82347       507.78547        43.690
  24129630.97445 126802049.00445       -30.90645        40.407    24129630.82942
  98806813.07542       -24.08242        33.574
  20598516.01549 108245976.44949      1179.16049        48.152    20598515.35547
  84347531.92647       918.82447        43.654
  21270709.46848 111778413.39548     -2062.26248        47.116    21270709.10645
  87100102.10045     -1606.96145        40.715
  21268338.16348 111765925.29948      1849.89548        47.016    21268338.74845
  87090358.39645      1441.47345        40.990
  24196027.03344 127150965.85744     -1438.64144        38.001    24196031.26542
  99078702.13642     -1121.02342        33.326
  21128226.15149 111029629.83449     -2311.11749        47.965    21128226.19746
  86516606.99346     -1800.87546        42.961
 21  5 25  1  4  0.0000000  0 10G 5G10G13G15G16G18G20G23G26G29
  23142196.86647 121613156.04547     -3115.84047        43.777    23142196.62345
  94763544.45545     -2427.93045        39.058
  23904214.06446 125617506.51046      2856.40646        43.065    23904217.80243
  97883789.77443      2225.77043        35.886
  22078780.42748 116024814.65648      -871.64148        46.266    22078779.10144
  90408977.23944      -679.20344        36.994
  20674763.49749 108646687.25949       630.25449        48.325    20674763.65047
  84659809.28347       491.10547        43.395
  24129859.11745 126803250.33045       -49.19145        40.560    24129859.24442
  98807749.15642       -38.33642        34.114
  20591806.70249 108210719.37249      1171.03149        48.056    20591806.27247
  84320058.89647       912.48847        44.218
  21282502.49648 111840385.78548     -2069.20748        47.159    21282501.94445
  87148392.29045     -1612.37145        40.401
  21257809.59248 111710597.96648      1838.58648        46.973    21257810.30346
  87047246.23146      1432.66046        41.596
  24204275.46244 127194313.43144     -1451.43844        38.260    24204279.96642
  99112479.44642     -1130.99242        32.559
  21141464.92249 111099200.18049     -2327.00449        48.012    21141465.00146
  86570817.63746     -1813.25446        42.862
 21  5 25  1  4 30.0000000  0 10G 5G10G13G15G16G18G20G23G26G29
  23159992.82547 121706674.33147     -3118.67647        43.533    23159992.83544
  94836415.81144     -2430.14144        38.597
  23887923.94546 125531901.94146      2850.52046        42.898    23887927.41643
  97817084.94543      2221.18043        35.785
  22083813.11448 116051262.23548      -891.85948        45.650    22083811.85244
  90429585.76444      -694.95744        37.835
  20671226.74249 108628101.27949       608.73449        48.398    20671226.99447
  84645326.71947       474.33647        43.725
  24130194.66646 126805013.08846       -68.38346        41.256    24130194.79242
  98809122.72342       -53.28942        32.259
  20585144.67949 108175710.93749      1162.72749        47.909    20585144.48347
  84292779.62147       906.01647        43.578
  21294336.58048 111902574.60648     -2076.59448        47.113    21294336.12145
  87196851.11245     -1618.12945        40.963
  21247345.78748 111655610.29448      1827.20348        47.160    21247346.42146
  87004398.72346      1423.79346        41.501
  24212598.05944 127238049.72944     -1464.25444        37.665    24212603.02942
  99146559.64142     -1140.98442        33.065
  21154793.47449 111169242.63949     -2342.69549        47.942    21154793.39446
  86625396.15846     -1825.48046        42.823
 21  5 25  1  5  0.0000000  0 10G 5G10G13G15G16G18G20G23G26G29
  23177804.16346 121800273.04746     -3121.27746        42.967    23177804.37444
  94909349.85044     -2432.16844        38.874
  23871667.47646 125446475.41346      2844.53946        42.662    23871671.41543
  97750518.88643      2216.52043        36.175
  22088961.63248 116078319.40248      -912.00048        45.844    22088960.93844
  90450669.27944      -710.65244        37.739
  20667812.51749 108610159.18349       587.37549        48.295    20667812.75747
  84631345.87747       457.69147        43.623
  24130637.05646 126807336.57246       -86.60246        41.846    24130636.82442
  98810933.24442       -67.48442        34.289
  20578530.18349 108140952.14349      1154.48849        48.078    20578530.09547
  84265694.85847       899.59847        43.648
  21306211.68048 111964978.51248     -2083.77748        47.593    21306211.21445
  87245477.52545     -1623.72745        40.204
  21236946.62148 111600962.49648      1815.94548        47.389    21236947.16546
  86961816.05046      1415.02046        41.271
  24220994.56145 127282172.55245     -1477.17645        39.621    24220998.93342
  99180941.04442     -1151.05542        33.318
  21168211.52549 111239755.55749     -2358.23449        47.819    21168211.44346
  86680341.27746     -1837.59046        42.683
 21  5 25  1  5 30.0000000  0 10G 5G10G13G15G16G18G20G23G26G29
  23195630.33746 121893950.65446     -3124.10246        43.194    23195630.71944
  94982345.34844     -2434.36744        38.297
  23855445.12846 125361227.62046      2838.69546        42.072    23855448.92144
  97684092.09544      2211.96944        37.807
  22094226.02348 116105985.01148      -932.18848        45.863    22094225.75144
  90472226.88044      -726.38344        37.068
  20664520.89049 108592861.54449       565.78149        48.734    20664520.96447
  84617867.21547       440.86747        43.590
  24131185.90646 126810220.05946      -105.49646        41.645    24131185.28242
  98813180.14642       -82.20742        34.281
  20571963.47649 108106444.03849      1146.18449        47.976    20571963.30847
  84238805.42847       893.12547        43.725
  21318127.40448 112027595.90748     -2090.64148        47.196    21318126.81545
  87294270.29245     -1629.07445        40.573
  21226612.36648 111546654.81948      1804.56648        47.547    21226612.59545
  86919498.39445      1406.15245        40.666
  24229464.19344 127326679.45744     -1490.06244        38.713    24229468.88044
  99215621.74244     -1161.09044        37.312
  21181718.80848 111310737.03048     -2373.85248        47.656    21181718.99346
  86735651.49346     -1849.75846        42.841
 21  5 25  1  6  0.0000000  0 10G 5G10G13G15G16G18G20G23G26G29
  23213471.39347 121987706.23647     -3126.53147        43.632    23213471.78544
  95055401.60944     -2436.26244        38.585
  23839257.07046 125276159.16146      2832.63346        41.968    23839261.03543
  97617805.03943      2207.24243        36.631
  22099606.14448 116134258.16248      -952.69148        45.948    22099606.02044
  90494257.89944      -742.35944        36.750
  20661352.22449 108576209.09349       544.37549        48.703    20661351.96847
  84604891.28647       424.18447        43.805
  24131841.13445 126813663.13145      -124.13745        40.253    24131840.24941
  98815863.04541       -96.73441        32.154
  20565444.73049 108072187.67249      1137.55549        48.278    20565444.29947
  84212112.15447       886.40247        43.337
  21330083.57748 112090425.75748     -2097.73048        47.310    21330082.94645
  87343228.61245     -1634.59845        40.091
  21216342.85348 111492687.42748      1793.17648        47.422    21216342.79045
  86877445.90145      1397.27745        40.773
  24238006.66345 127371568.22345     -1502.45745        39.318    24238010.92842
  99250599.92842     -1170.75442        34.156
  21195314.91449 111382185.23249     -2389.44949        47.799    21195315.10246
  86791325.40146     -1861.91046        42.218
 21  5 25  1  6 30.0000000  0 10G 5G10G13G15G16G18G20G23G26G29
  23231326.76346 122081537.11246     -3128.75446        43.292    23231327.26945
  95128516.53945     -2437.99245        38.892
  23823103.29446 125191270.70946      2826.90646        41.996    23823107.26844
  97551658.25844      2202.78144        37.324
  22105101.89048 116163138.05548      -973.00448        45.943    22105101.66843
  90516761.71143      -758.18843        35.868
  20658306.25449 108560202.31349       522.77349        48.473    20658305.85646
  84592418.49146       407.35246        43.254
  24132602.47645 126817664.86345      -142.78145        39.264    24132601.92643
  98818981.27643      -111.26243        35.412
  20558974.10149 108038183.99749      1129.14849        48.402    20558973.74047
  84185615.78447       879.85247        44.041
  21342079.84348 112153466.51948     -2104.82848        47.074    21342079.25145
  87392351.27945     -1640.12945        40.087
  21206137.92548 111439060.55148      1781.83248        47.346    21206137.99346
  86835658.73446      1388.43846        41.347
  24246621.02844 127416836.41944     -1514.94544        38.630    24246625.27043
  99285873.82143     -1180.48843        35.217
  21208999.71749 111454098.76149     -2404.80149        48.333    21208999.67846
  86847361.89946     -1873.87546        42.205
 21  5 25  1  7  0.0000000  0 10G 5G10G13G15G16G18G20G23G26G29
  23249196.39646 122175441.93446     -3131.31246        43.125    23249197.43344
  95201689.08744     -2439.98844        37.597
  23806984.07246 125106562.98346      2820.66046        42.364    23806987.71644
  97485652.30044      2197.91844        37.402
  22110712.83748 116192623.53348      -993.22748        45.889    22110712.70244
  90539737.41444      -773.94544        36.694
  20655383.22149 108544842.04049       501.12549        48.625    20655382.66646
  84580449.45646       390.48446        43.176
  24133470.27145 126822224.66945      -161.37545        40.724    24133469.54042
  98822534.37542      -125.75042        32.343
  20552551.79949 108004434.07249      1120.77049        48.610    20552551.60347
  84159317.14047       873.32447        43.694
  21354115.88348 112216716.69748     -2111.69148        47.359    21354115.49245
  87441637.10945     -1645.47745        39.818
  21195997.89848 111385774.35948      1770.52748        47.555    21195998.05346
  86794137.04746      1379.62946        41.532
  24255306.83344 127462481.65644     -1527.23044        37.832    24255311.44343
  99321441.56443     -1190.05543        34.567
  21222772.66649 111526475.54149     -2420.36749        48.084    21222772.44546
  86903759.37746     -1886.00446        42.008
 21  5 25  1  7 30.0000000  0 10G 5G10G13G15G16G18G20G23G26G29
  23267079.84247 122269419.57047     -3133.75047        43.552    23267080.81044
  95274918.36244     -2441.88744        37.535
  23790899.28846 125022036.54546      2814.95746        43.149    23790902.61744
  97419787.58544      2193.46944        36.936
  22116438.72948 116222713.57348     -1013.04748        46.202    22116438.62143
  90563184.20343      -789.39143        36.254
  20652583.16449 108530128.54249       479.77349        48.099    20652582.64647
  84568984.40847       373.84847        43.818
  24134444.17145 126827341.83345      -179.98845        40.748    24134443.19741
  98826521.76341      -140.25441        31.918
  20546177.97049 107970938.97349      1112.22349        48.365    20546177.87647
  84133217.06047       866.66447        44.115
  21366191.70648 112280175.14848     -2118.68448        47.175    21366191.16645
  87491085.24445     -1650.92645        40.742
  21185922.73348 111332829.02648      1759.15248        47.299    21185922.78445
  86752880.95145      1370.76645        40.909
  24264064.08344 127508501.74544     -1540.04744        38.759    24264068.58442
  99357301.32142     -1200.04342        33.697
  21236633.41849 111599313.88849     -2435.55549        47.930    21236633.28946
  86960516.51046     -1897.84046        42.939
 21  5 25  1  8  0.0000000  0 10G 5G10G13G15G16G18G20G23G26G29
  23284976.85346 122363468.27046     -3136.12146        43.242    23284977.62145
  95348203.04945     -2443.73445        39.345
  23774849.32846 124937692.12046      2808.62546        42.639    23774852.69144
  97354064.71144      2188.53544        36.922
  22122279.56948 116253407.44148     -1033.17648        45.779    22122279.18243
  90587101.50343      -805.07443        36.539
  20649906.34249 108516062.48849       457.95349        48.090    20649906.19447
  84558023.86647       356.84447        44.297
  24135523.84745 126833015.16045      -198.59445        40.837    24135522.64642
  98830942.53542      -154.75042        32.826
  20539852.80149 107937699.72249      1103.77749        48.373    20539852.68447
  84107316.33747       860.08247        44.078
  21378306.78648 112343840.24648     -2125.48848        46.989    21378306.22545
  87540694.39945     -1656.22745        39.768
  21175912.40248 111280224.73748      1747.73848        47.166    21175912.64346
  86711890.62146      1361.87146        41.730
  24272892.33644 127554894.16044     -1552.18844        38.828    24272896.14042
  99393451.20442     -1209.50042        34.225
  21250581.68849 111672611.90749     -2450.85949        48.046    21250581.57046
  87017631.83346     -1909.76646        42.721
 21  5 25  1  8 30.0000000  0 10G 5G10G13G15G16G18G20G23G26G29
  23302886.94846 122457586.55246     -3138.52746        42.214    23302887.64945
  95421541.94045     -2445.60945        39.683
  23758833.78746 124853530.24146      2802.23846        42.014    23758837.45244
  97288484.08244      2183.55944        38.130
  22128235.09748 116284704.19348     -1053.25848        45.786    22128234.19144
  90611488.58044      -820.72344        36.841
  20647352.88849 108502644.43349       436.52349        48.398    20647353.01147
  84547568.25547       340.14547        44.105
  24136709.08344 126839244.02044      -216.73444        38.847    24136707.80542
  98835796.17642      -168.88742        33.816
  20533576.44949 107904717.32549      1095.10549        48.566    20533576.41747
  84081615.77247       853.32447        44.178
  21390460.94648 112407710.82648     -2132.41448        46.878    21390460.39945
  87590463.66545     -1661.62545        40.515
  21165967.01548 111227961.63348      1736.45748        47.556    21165967.41645
  86671166.15345      1353.08245        40.992
  24281791.25945 127601656.48245     -1564.91045        40.607    24281795.51843
  99429889.35843     -1219.41443        34.613
  21264617.06249 111746367.86149     -2466.08649        48.068    21264616.98146
  87075103.98446     -1921.62946        42.284
 21  5 25  1  9  0.0000000  0 10G 5G10G13G15G16G18G20G23G26G29
  23320810.14446 122551773.01646     -3140.66446        42.644    23320810.56844
  95494933.98844     -2447.27344        38.701
  23742853.04046 124769551.54346      2796.01646        42.670    23742856.77344
  97223046.21744      2178.71144        36.830
  22134305.29848 116316602.71148     -1073.22348        45.845    22134304.19444
  90636344.58844      -836.28144        37.103
  20644922.86949 108489874.73549       414.89849        48.322    20644923.03247
  84537617.85147       323.29347        43.826
  24137999.70945 126846027.64045      -235.44945        39.396    24137999.13442
  98841082.10842      -183.47342        32.977
  20527349.19649 107871992.89449      1086.51649        48.380    20527349.14747
  84056116.21347       846.63347        44.346
  21402653.99948 112471785.39548     -2139.27748        46.997    21402653.33645
  87640391.89745     -1666.97345        40.360
  21156086.79448 111176039.90348      1725.06248        47.667    21156087.11346
  86630707.67046      1344.20346        41.839
  24290760.27746 127648786.34246     -1577.18046        41.139    24290764.22143
  99466613.90343     -1228.97343        34.735
  21278738.97848 111820579.96048     -2481.28948        47.742    21278739.20146
  87132931.56346     -1933.47746        42.910
 21  5 25  1  9 30.0000000  0 10G 5G10G13G15G16G18G20G23G26G29
  23338745.74546 122646025.80746     -3143.14546        42.861    23338746.31344
  95568377.67444     -2449.20744        37.113
  23726907.34746 124685756.70546      2789.90646        43.017    23726911.00043
  97157751.63043      2173.94943        35.917
  22140489.76048 116349101.78448     -1093.30548        45.773    22140488.85844
  90661668.54444      -851.93044        37.329
  20642616.36449 108477753.99249       393.08249        48.482    20642616.53847
  84528173.14247       306.29347        44.079
  24139395.68945 126853365.23945      -253.89845        39.956    24139395.57042
  98846799.72842      -197.84842        32.294
  20521171.09949 107839527.41449      1077.81649        48.312    20521171.34747
  84030818.44147       839.85547        44.225
  21414885.62548 112536062.66048     -2145.91848        47.150    21414884.83545
  87690478.06645     -1672.14845        40.100
  21146271.68948 111124459.64948      1713.64848        47.632    21146271.82046
  86590515.28546      1335.30946        41.990
  24299798.74046 127696281.31546     -1589.33646        41.380    24299802.29344
  99503622.95944     -1238.44544        37.748
  21292947.60349 111895246.28649     -2496.47349        47.784    21292948.11546
  87191113.09346     -1945.33646        42.998
 21  5 25  1 10  0.0000000  0 10G 5G10G13G15G16G18G20G23G26G29
  23356693.85146 122740343.43446     -3145.07046        41.968    23356694.06745
  95641871.92545     -2450.70745        39.411
  23710997.15746 124602146.35146      2783.74246        43.236    23711000.40444
  97092600.77344      2169.15244        37.782
  22146788.26448 116382200.34848     -1113.11748        45.940    22146787.44844
  90687459.62844      -867.36744        38.505
  20640433.53049 108466282.45449       371.43849        48.731    20640433.69747
  84519234.30547       289.43047        43.735
  24140896.88245 126861255.66545      -272.48845        39.793    24140897.05241
  98852948.17841      -212.32841        30.013
  20515042.55149 107807321.93949      1069.20749        48.268    20515042.96847
  84005723.26647       833.14547        44.954
  21427155.58648 112600541.54348     -2152.59048        46.930    21427154.87345
  87740721.33345     -1677.34845        40.315
  21136521.43448 111073221.03848      1702.34448        47.689    21136521.30146
  86550589.10746      1326.50046        41.780
  24308905.90445 127744138.95745     -1601.37145        40.623    24308909.53944
  99540914.63644     -1247.82444        37.052
  21307242.20448 111970364.68548     -2511.45348        47.523    21307242.64446
  87249646.89446     -1956.98046        42.985
 21  5 25  1 10 30.0000000  0 10G 5G10G13G15G16G18G20G23G26G29
  23374653.80846 122834724.41346     -3146.71546        42.136    23374654.34944
  95715415.54644     -2451.98844        38.664
  23695121.95846 124518721.03546      2777.76646        43.315    23695124.68443
  97027594.09143      2164.48843        35.479
  22153200.54448 116415897.24948     -1133.41048        45.705    22153199.86644
  90713716.96444      -883.18044        37.716
  20638374.27049 108455460.53349       349.87949        48.591    20638374.37247
  84510801.64347       272.62947        43.920
  24142503.37045 126869698.52745      -290.45745        39.267    24142503.62041
  98859526.98741      -226.33241        30.781
  20508963.79849 107775377.55649      1060.40649        48.328    20508964.29747
  83980831.54047       826.28947        44.964
  21439463.65348 112665220.16048     -2159.35548        47.252    21439462.85745
  87791120.25145     -1682.61745        40.545
  21126836.01448 111022324.20048      1690.80948        47.680    21126835.98746
  86510929.25446      1317.51246        41.920
  24318081.53245 127792356.91945     -1613.44545        40.209    24318085.24143
  99578486.99643     -1257.23443        35.742
  21321622.46148 112045933.93648     -2526.50048        47.617    21321622.70546
  87308532.00746     -1968.70346        42.082
 21  5 25  1 11  0.0000000  0 10G 5G10G13G15G16G18G20G23G26G29
  23392625.86047 122929167.41347     -3149.05147        43.599    23392626.27043
  95789007.48443     -2453.80943        36.394
  23679281.68946 124435481.35746      2771.44546        43.017    23679284.17643
  96962732.07343      2159.56643        36.123
  22159726.50348 116450191.19748     -1153.05548        46.010    22159725.93844
  90740439.52944      -898.48844        36.963
  20636438.64149 108445288.65749       328.20349        48.559    20636438.73647
  84502875.52747       255.73847        43.931
  24144214.76245 126878692.76045      -309.21945        40.031    24144215.81943
  98866535.48643      -240.95343        35.598
  20502934.89249 107743695.29349      1051.63749        48.370    20502935.46647
  83956144.05547       819.45347        44.836
  21451809.48148 112730097.37848     -2165.87948        47.259    21451808.39545
  87841673.92945     -1687.69945        40.013
  21117215.55348 110971769.24048      1679.46548        47.723    21117215.69946
  86471535.78546      1308.67246        41.757
  24327324.95144 127840932.65244     -1624.93844        38.789    24327328.80943
  99616338.18743     -1266.18843        36.038
  21336088.07949 112121951.46049     -2541.38349        47.889    21336088.28146
  87367766.41846     -1980.30146        42.076
 21  5 25  1 11 30.0000000  0 10G 5G10G13G15G16G18G20G23G26G29
  23410609.51946 123023670.88446     -3151.34846        43.252    23410609.55244
  95862646.57444     -2455.59844        37.779
  23663476.91646 124352427.90846      2765.47746        42.404    23663479.36043
  96898015.16343      2154.91443        35.710
  22166365.95348 116485081.18048     -1172.83648        45.941    22166365.35143
  90767626.54043      -913.90243        36.175
  20634626.69849 108435766.91049       306.52349        48.484    20634626.92647
  84495455.99347       238.84847        44.019
  24146031.30745 126888237.05045      -327.17645        40.709    24146032.43942
  98873972.57442      -254.94542        32.856
  20496955.99049 107712276.18149      1043.03549        48.322    20496956.57847
  83931661.63547       812.75047        44.401
  21464192.80848 112795171.84248     -2172.51248        47.243    21464191.63245
  87892381.29645     -1692.87145        39.611
  21107660.04948 110921556.25348      1668.01648        46.939    21107660.39746
  86432408.80246      1299.75046        41.898
  24336636.10544 127889863.73444     -1636.98044        38.806    24336640.04544
  99654466.24444     -1275.57444        37.511
  21350638.69148 112198415.53148     -2556.19148        47.315    21350638.93046
  87427348.78446     -1991.84046        42.835
 21  5 25  1 12  0.0000000  0 10G 5G10G13G15G16G18G20G23G26G29
  23428604.02946 123118233.08746     -3152.89546        43.046    23428603.94748
  95936331.39948     -2456.80548        47.606
  23647707.82846 124269561.33846      2759.04346        42.635    23647710.30943
  96833443.88443      2149.90243        34.964
  22173118.48348 116520565.81048     -1192.89548        46.201    22173117.93144
  90795276.89344      -929.53144        36.713
  20632938.63649 108426896.05649       284.75849        48.291    20632938.94747
  84488543.65447       221.88747        44.245
  24147952.49546 126898330.51746      -345.58646        41.609    24147953.24542
  98881837.62342      -269.28942        33.914
  20491027.32549 107681121.32049      1034.02049        48.342    20491027.82447
  83907385.12047       805.72747        44.185
  21476613.38248 112860442.35648     -2178.86348        47.239    21476612.55645
  87943241.43145     -1697.82045        40.518
  21098169.65748 110871685.34748      1656.60548        47.598    21098170.33346
  86393548.38946      1290.85946        41.625
  24346014.36244 127939147.66844     -1648.53944        37.792    24346018.34743
  99692869.24043     -1284.58243        35.102
  21365273.95549 112275324.47349     -2570.96149        47.825    21365274.12346
  87487277.80746     -2003.34846        42.230
 21  5 25  1 12 30.0000000  0 10G 5G10G13G15G16G18G20G23G26G29
  23446609.53346 123212853.02246     -3154.92646        42.802    23446609.37949
  96010061.22249     -2458.38749        47.965
  23631974.30446 124186882.18946      2752.52346        42.434    23631976.88043
  96769018.62643      2144.82043        36.178
  22179984.06848 116556644.05748     -1212.36748        46.216    22179983.47843
  90823389.82843      -944.70343        35.936
  20631374.46249 108418676.13849       263.10549        48.462    20631374.76447
  84482138.53447       205.01647        44.308
  24149977.61145 126908972.28845      -363.82045        41.018    24149978.08242
  98890129.93342      -283.49642        32.852
  20485149.17149 107650231.78149      1025.23049        48.212    20485149.48047
  83883315.35347       798.87947        44.217
  21489070.95048 112925907.49648     -2185.40248        47.101    21489070.53145
  87994253.21845     -1702.91445        39.920
  21088744.59348 110822156.62948      1645.27348        47.295    21088745.42946
  86354954.59746      1282.02746        42.021
  24355459.08645 127988781.97545     -1660.41845        39.626    24355462.94243
  99731545.30743     -1293.83643        36.064
  21379993.60249 112352676.12149     -2585.76249        47.979    21379993.70546
  87547551.79646     -2014.88346        41.902
 21  5 25  1 13  0.0000000  0 10G 5G10G13G15G16G18G20G23G26G29
  23464625.68246 123307528.67946     -3156.62546        43.142    23464625.64048
  96083834.44648     -2459.71148        47.297
  23616276.48046 124104390.96046      2746.75446        42.618    23616279.71944
  96704739.80844      2140.32444        38.227
  22186962.16948 116593314.95448     -1232.20748        45.710    22186961.76544
  90851964.54944      -960.16444        37.130
  20629934.15249 108411107.11649       241.43849        48.557    20629934.12947
  84476240.60447       188.12947        43.908
  24152106.98945 126920160.96745      -382.19945        40.537    24152107.34341
  98898848.31441      -297.82441        29.222
  20479321.68849 107619608.60249      1016.33249        48.374    20479322.07747
  83859453.14847       791.94547        44.085
  21501565.25048 112991566.12148     -2191.91048        46.587    21501564.95445
  88045415.77645     -1707.98445        39.991
  21079384.66548 110772970.17848      1633.94148        47.647    21079385.68746
  86316627.52046      1273.19946        41.931
  24364970.23144 128038764.13744     -1671.71144        38.355    24364974.03442
  99770492.42342     -1302.63742        33.277
  21394797.01948 112430468.74748     -2600.52048        47.579    21394797.08946
  87608169.40146     -2026.38346        42.035
 21  5 25  1 13 30.0000000  0 10G 5G10G13G15G16G18G20G23G26G29
  23482651.94346 123402258.91246     -3158.64846        42.862    23482652.22449
  96157650.20549     -2461.28949        47.973
  23600614.85446 124022088.34346      2740.38746        43.309    23600618.21344
  96640607.97044      2135.36344        37.494
  22194052.88048 116630576.81048     -1251.89148        45.987    22194052.49544
  90880999.75544      -975.50444        36.820
  20628617.76149 108404189.44049       219.78949        48.619    20628617.50747
  84470850.21447       171.26247        43.642
  24154340.20645 126931895.96745      -400.38745        40.640    24154340.04943
  98907992.48843      -311.99243        34.576
  20473545.27549 107589252.88049      1007.27049        48.707    20473545.37547
  83835799.34547       784.88347        43.769
  21514096.07848 113057416.64948     -2198.19948        46.542    21514095.71345
  88096727.87145     -1712.88745        40.375
  21070089.82648 110724126.10448      1622.50848        46.993    21070090.86346
  86278567.21546      1264.28946        41.661
  24374547.37145 128089091.66545     -1682.88745        39.682    24374551.23544
  99809708.63344     -1311.34444        36.750
  21409684.14448 112508700.61548     -2615.03148        47.625    21409683.99246
  87669129.26646     -2037.69146        42.669
 21  5 25  1 14  0.0000000  0 10G 5G10G13G15G16G18G20G23G26G29
  23500688.62447 123497042.05747     -3160.25847        43.576    23500689.01948
  96231507.18048     -2462.54348        47.393
  23584989.29646 123939974.88846      2733.91846        42.917    23584992.53944
  96576623.51244      2130.32444        38.485
  22201255.83448 116668428.31648     -1271.44148        46.161    22201255.16943
  90910494.46143      -990.73843        36.338
  20627425.29149 108397923.46749       197.97349        48.392    20627425.03147
  84465967.64647       154.26247        43.732
  24156677.13945 126944176.43045      -418.44545        40.038    24156676.93242
  98917561.67842      -326.06642        33.616
  20467819.96249 107559165.64449       998.44149        48.441    20467819.73747
  83812354.75647       778.00447        43.863
  21526663.27448 113123458.02648     -2204.56648        46.606    21526663.06045
  88148188.66945     -1717.84845        40.061
  21060860.15148 110675624.42748      1611.04748        47.111    21060860.99746
  86240773.74646      1255.35946        41.394
  24384189.80245 128139762.05045     -1694.46545        39.581    24384193.03642
  99849192.05142     -1320.36742        32.839
  21424654.56148 112587368.97048     -2629.45748        47.380    21424654.02146
  87730429.28146     -2048.93046        42.816
 21  5 25  1 14 30.0000000  0 10G 5G10G13G15G16G18G20G23G26G29
  23518734.82546 123591876.72346     -3161.79346        41.923    23518735.30649
  96305404.29449     -2463.73849        48.705
  23569399.74347 123858051.10747      2727.78947        43.595    23569402.96043
  96512786.84043      2125.54743        36.178
  22208570.49848 116706868.32448     -1291.16448        45.727    22208569.66043
  90940447.71743     -1006.10543        36.042
  20626356.84449 108392309.11049       176.39149        48.476    20626356.51947
  84461592.83447       137.44547        44.079
  24159117.33745 126957001.08145      -436.69945        40.218    24159117.31843
  98927554.90143      -340.28943        35.066
  20462145.82249 107529347.96449       989.44949        48.051    20462145.48347
  83789120.20847       770.99647        44.096
  21539266.62148 113189688.65348     -2210.92648        46.850    21539266.30345
  88199796.94245     -1722.80145        39.841
  21051695.81149 110627465.22449      1599.69949        47.868    21051696.42345
  86203247.11245      1246.51645        41.011
  24393896.99345 128190772.76645     -1705.95745        39.537    24393900.56543
  99888940.61843     -1329.32043        35.666
  21439707.35948 112666472.19448     -2644.00048        47.140    21439707.21046
  87792068.13146     -2060.26246        42.655
 21  5 25  1 15  0.0000000  0 11G 5G10G13G15G16G18G20G23G26G27G29
  23536790.82246 123686761.98946     -3163.53946        42.265    23536791.37449
  96379340.84349     -2465.09849        48.051
  23553846.41547 123776317.55847      2721.18447        43.730    23553849.49844
  96449098.40744      2120.39844        38.880
  22215996.93147 116745895.52847     -1310.82047        45.465    22215996.26643
  90970858.51243     -1021.42243        35.169
  20625412.47849 108387346.57249       154.57049        48.680    20625412.24146
  84457725.92146       120.44146        43.230
  24161661.03945 126970368.63845      -454.69145        40.090    24161661.32742
  98937971.17342      -354.30942        34.062
  20456523.19949 107499800.94349       980.25049        48.249    20456522.91547
  83766096.56847       763.82847        44.046
  21551905.78748 113256107.07148     -2217.17248        47.035    21551905.06345
  88251551.55345     -1727.66845        39.851
  21042596.89448 110579648.55548      1588.10948        47.628    21042597.28546
  86165987.39146      1237.48446        41.528
  24403668.07145 128242121.26845     -1717.21545        39.267    24403672.23244
  99928952.38444     -1338.09844        37.695
  25057950.27344 131680408.89044      3483.30544        37.421    25057953.27548
 102608122.69348      2714.26248        45.894
  21454842.40249 112746008.07649     -2658.37949        47.783    21454842.65346
  87854044.10346     -2071.46946        43.089
 21  5 25  1 15 30.0000000  0 11G 5G10G13G15G16G18G20G23G26G27G29
  23554856.02746 123781695.88346     -3165.21546        42.340    23554856.73549
  96453315.26849     -2466.40649        48.287
  23538329.27646 123694774.81946      2714.82046        41.846    23538332.26544
  96385558.64144      2115.44144        38.873
  22223535.04448 116785508.59848     -1330.10548        45.828    22223534.52144
  91001725.82544     -1036.44944        37.008
  20624592.17749 108383035.98049       132.81249        48.321    20624592.06447
  84454367.01547       103.48847        44.147
  24164307.98045 126984277.58045      -472.40245        40.278    24164307.71242
  98948809.27242      -368.10942        32.262
  20450952.31149 107470525.61849       971.32849        48.373    20450952.12047
  83743284.62847       756.87547        44.436
  21564580.35248 113322712.34748     -2223.27748        46.951    21564579.41245
  88303451.76845     -1732.42645        39.433
  21033563.06148 110532174.43448      1576.69948        47.756    21033563.26546
  86128994.59646      1228.59446        41.581
  24413503.39145 128293805.02445     -1728.26645        39.000    24413507.15342
  99969225.44542     -1346.70342        33.649
  25038081.15545 131575996.41045      3477.46945        39.462    25038083.05047
 102526762.38347      2709.71147        44.172
  21470059.76849 112825974.79249     -2672.82849        47.808    21470059.80546
  87916355.80546     -2082.72746        42.197
 21  5 25  1 16  0.0000000  0 11G 5G10G13G15G16G18G20G23G26G27G29
  23572930.50347 123876676.76847     -3166.89547        43.404    23572930.89348
  96527326.33548     -2467.71548        47.005
  23522848.37346 123613423.41246      2708.25446        42.883    23522851.75944
  96322167.99644      2110.32444        38.232
  22231184.52848 116825705.91348     -1349.79348        46.096    22231183.88143
  91033048.40443     -1051.78943        36.380
  20623895.98949 108379377.16649       111.05949        48.765    20623895.74947
  84451516.00147        86.53547        43.943
  24167057.73145 126998727.02745      -490.47745        40.693    24167056.85841
  98960068.58541      -382.19141        31.904
  20445433.24049 107441523.09249       962.20349        48.040    20445433.22047
  83720685.26847       749.76647        45.056
  21577290.20648 113389503.04848     -2229.34848        46.835    21577289.28545
  88355496.47145     -1737.15645        39.874
  21024594.43949 110485042.92049      1565.32049        48.157    21024594.16446
  86092268.75046      1219.72746        41.167
  24423401.80645 128345821.45145     -1739.27045        39.761    24423405.50442
 100009757.67442     -1355.27742        33.559
  25018243.25044 131471749.05644      3472.12944        38.636    25018245.22547
 102445530.67847      2705.55147        43.608
  21485358.54348 112906370.25548     -2686.91848        47.544    21485358.38346
  87979001.60946     -2093.70746        42.620
 21  5 25  1 16 30.0000000  0 11G 5G10G13G15G16G18G20G23G26G27G29
  23591013.37246 123971703.57946     -3168.59446        42.110    23591014.04948
  96601373.17148     -2469.03948        46.664
  23507404.27446 123532263.86246      2702.15246        42.840    23507407.60744
  96258926.83044      2105.57044        37.727
  22238944.88448 116866486.01448     -1368.94948        46.079    22238944.15644
  91064825.10744     -1066.71944        37.275
  20623323.98549 108376370.63249        89.34849        48.885    20623323.60446
  84449173.25146        69.61746        43.163
  24169910.12546 127013716.07246      -508.85246        41.307    24169908.92441
  98971748.35741      -396.51241        31.666
  20439966.30249 107412794.44149       953.00849        48.262    20439966.39147
  83698299.32147       742.60247        44.681
  21590035.00548 113456477.94848     -2235.54748        46.734    21590034.43345
  88407684.70245     -1741.98845        39.411
  21015690.90948 110438254.03548      1553.96548        47.770    21015690.49846
  86055809.90346      1210.87946        41.994
  24433363.01444 128398167.95744     -1750.33644        38.514    24433366.61343
 100050547.14643     -1363.90243        34.741
  24998436.98544 131367669.48644      3466.44144        37.844    24998439.80747
 102364429.74147      2701.12147        44.421
  21500738.36448 112987192.38948     -2701.23048        47.661    21500738.44346
  88041979.86246     -2104.85946        41.657
 21  5 25  1 17  0.0000000  0 11G 5G10G13G15G16G18G20G23G26G27G29
  23609104.92746 124066775.39046     -3169.83246        42.133    23609105.73249
  96675455.06249     -2470.00449        48.074
  23491996.68146 123451296.71046      2695.66046        43.172    23492000.16844
  96195835.59344      2100.51244        37.389
  22246815.88748 116907847.61248     -1388.43448        45.748    22246814.97343
  91097054.92943     -1081.89843        34.623
  20622876.06249 108374016.10649        67.60249        48.813    20622875.65847
  84447338.56747        52.67247        43.722
  24172864.63845 127029243.43145      -526.91445        40.762    24172863.84141
  98983847.56541      -410.58641        28.971
  20434551.77449 107384340.73849       943.89149        48.459    20434551.84247
  83676127.60347       735.49647        44.424
  21602814.73148 113523635.84348     -2241.65248        46.808    21602814.07945
  88460015.51245     -1746.74645        39.112
  21006852.44249 110391807.81149      1542.43849        48.091    21006852.23346
  86019618.05746      1201.89546        41.422
  24443386.36345 128450842.07145     -1761.00845        39.894    24443390.06442
 100091591.83842     -1372.22342        32.496
  24978663.75544 131263760.34844      3460.89144        37.603    24978667.11748
 102283461.63448      2696.79348        47.202
  21516199.11048 113068439.22948     -2715.35948        47.254    21516199.13646
  88105289.07746     -2115.86746        41.795
 21  5 25  1 17 30.0000000  0 11G 5G10G13G15G16G18G20G23G26G27G29
  23627204.78346 124161890.38446     -3171.14146        41.840    23627205.52548
  96749570.61048     -2471.02348        47.712
  23476625.81746 123370522.49746      2688.94946        42.691    23476629.46243
  96132894.71343      2095.28143        36.448
  22254796.99448 116949789.27448     -1407.68848        45.622    22254796.24443
  91129736.74543     -1096.90243        36.536
  20622552.17949 108372313.62349        45.84849        48.463    20622551.73547
  84446011.97347        35.72347        44.348
  24175921.41845 127045307.75245      -544.38745        40.227    24175921.08441
  98996365.19941      -424.19941        31.917
  20429189.90349 107356163.06949       934.66049        48.709    20429189.75447
  83654170.97047       728.30547        44.516
  21615628.92248 113590975.14048     -2247.66848        46.424    21615628.33645
  88512487.68645     -1751.43445        39.798
  20998079.06448 110345704.26048      1530.96948        47.446    20998078.98846
  85983693.22546      1192.96146        42.403
  24453471.89545 128503841.04845     -1772.07045        39.025    24453475.86542
 100132889.71942     -1380.83642        33.083
  24958922.79843 131160024.35843      3454.73043        35.094    24958926.78448
 102202628.47548      2692.00048        47.006
  21531740.31648 113150108.58948     -2729.38748        47.517    21531740.19746
  88168927.51746     -2126.79746        41.974
 21  5 25  1 18  0.0000000  0 11G 5G10G13G15G16G18G20G23G26G27G29
  23645312.78646 124257046.94646     -3172.46946        42.208    23645313.26349
  96823718.54549     -2472.05949        48.365
  23461291.94346 123289941.77746      2682.67246        43.310    23461295.10444
  96070104.55944      2090.39144        37.866
  22262888.14247 116992309.52347     -1427.02347        45.454    22262887.79844
  91162869.39844     -1111.96944        37.577
  20622352.23349 108371263.03349        24.10549        48.314    20622351.87247
  84445193.33847        18.78147        43.963
  24179080.34045 127061907.74645      -562.23845        40.964    24179080.16942
  99009300.24742      -438.10942        33.799
  20423880.56949 107328262.52649       925.30549        48.312    20423880.59447
  83632430.28947       721.01247        44.643
  21628477.39848 113658494.84848     -2253.56248        46.370    21628477.16445
  88565100.41745     -1756.02745        40.039
  20989370.91648 110299943.36048      1519.63348        47.601    20989371.02346
  85948035.40746      1184.12546        42.388
  24463618.88445 128557162.48345     -1782.61345        39.559    24463622.12742
 100174438.83342     -1389.05142        33.964
  24939215.38844 131056463.92544      3448.66844        37.148    24939219.09248
 102121932.06648      2687.27048        46.127
  21547361.47748 113232198.46048     -2743.32048        47.427    21547361.29546
  88232893.63646     -2137.65646        41.628
 21  5 25  1 18 30.0000000  0 11G 5G10G13G15G16G18G20G23G26G27G29
  23663428.52546 124352244.05046     -3173.79346        42.340    23663428.82249
  96897898.06749     -2473.09049        48.020
  23445994.92346 123209554.97946      2676.32046        43.157    23445997.51243
  96007465.52143      2085.44143        36.403
  22271089.19748 117035406.65948     -1446.14848        45.653    22271088.66743
  91196451.58643     -1126.87143        36.615
  20622276.25149 108370864.10249         2.40249        48.803    20622275.98247
  84444882.49447         1.86747        43.948
  24182340.93945 127079042.29545      -580.47345        40.337    24182341.02143
  99022651.86043      -452.32043        35.951
  20418624.03149 107300640.21449       916.17649        48.407    20418624.27847
  83610906.40247       713.89847        44.656
  21641360.08348 113726193.79448     -2259.71148        46.450    21641359.88445
  88617852.83345     -1760.81645        39.549
  20980728.01848 110254525.12648      1508.18048        47.699    20980728.47746
  85912644.59546      1175.20346        42.240
  24473826.61944 128610803.58044     -1793.18844        38.382    24473829.98543
 100216237.09243     -1397.29343        34.658
  24919542.69044 130953081.76744      3442.99244        37.923    24919546.24548
 102041374.56348      2682.84848        47.091
  21563062.12948 113314706.65148     -2757.20748        46.852    21563062.29946
  88297185.71446     -2148.47746        42.097
 21  5 25  1 19  0.0000000  0 11G 5G10G13G15G16G18G20G23G26G27G29
  23681551.42446 124447479.89346     -3174.96546        43.289    23681551.65548
  96972107.79548     -2474.00048        47.294
  23430734.72047 123129362.64947      2669.89847        44.148    23430737.28144
  95944977.99944      2080.43844        36.816
  22279399.86548 117079079.60048     -1465.48448        45.786    22279399.23243
  91230482.43143     -1141.93843        36.117
  20622324.28949 108371116.96849       -19.32849        48.454    20622324.12547
  84445079.54147       -15.06247        44.055
  24185702.91845 127096710.16445      -597.74645        40.522    24185703.25241
  99036418.99641      -465.78141        29.246
  20413420.76249 107273297.18249       906.78549        48.472    20413421.14247
  83589600.14047       706.58247        44.625
  21654276.49648 113794070.32248     -2265.53548        46.551    21654276.29145
  88670743.62245     -1765.35545        39.911
  20972150.43748 110209449.57648      1496.62948        47.737    20972150.89346
  85877520.81346      1166.19946        41.640
  24484094.35744 128664761.92344     -1803.89544        38.005    24484098.57242
 100258282.46942     -1405.63742        33.873
  24899904.43944 130849880.56544      3437.01244        38.500    24899908.18848
 101960958.11548      2678.18848        47.320
  21578842.02548 113397630.96448     -2771.05148        47.665    21578842.33946
  88361802.03246     -2159.26246        41.174
 21  5 25  1 19 30.0000000  0 11G 5G10G13G15G16G18G20G23G26G27G29
  23699681.48446 124542753.57046     -3176.32846        42.785    23699681.88349
  97046346.99049     -2475.06249        48.109
  23415511.41446 123049365.27346      2663.50046        42.594    23415514.26044
  95882642.43044      2075.45344        38.685
  22287819.66248 117123326.34948     -1484.50848        45.582    22287819.18643
  91264960.39943     -1156.76243        36.112
  20622496.19949 108372021.54049       -41.17249        48.304    20622496.24547
  84445784.41247       -32.08647        43.444
  24189166.06445 127114909.70445      -615.43445        39.897    24189166.58841
  99050600.44041      -479.56241        31.283
  20408270.98249 107246234.54249       897.46949        48.601    20408271.25747
  83568512.36047       699.32447        44.443
  21667226.58748 113862123.37148     -2271.37948        46.677    21667226.16345
  88723771.94945     -1769.91045        39.535
  20963638.06248 110164716.63648      1485.41848        47.750    20963638.32546
  85842663.99246      1157.46546        42.310
  24494421.69943 128719034.73143     -1814.37143        36.375    24494426.59543
 100300572.87943     -1413.80943        35.631
  24880301.28143 130746862.88343      3430.46543        36.339    24880304.24747
 101880684.60347      2673.08647        44.979
  21594701.05748 113480969.45448     -2784.75448        47.775    21594701.12546
  88426741.10446     -2169.94146        42.310
 21  5 25  1 20  0.0000000  0 11G 5G10G13G15G16G18G20G23G26G27G29
  23717818.30146 124638063.67946     -3177.52746        42.651    23717818.83548
  97120614.56548     -2476.00048        47.581
  23400325.53146 122969563.40246      2656.50446        43.217    23400328.42044
  95820459.19244      2070.00044        38.213
  22296348.69148 117168145.54948     -1503.60548        45.795    22296348.07944
  91299884.44944     -1171.64544        37.115
  20622792.16149 108373577.76849       -62.89849        48.328    20622792.23747
  84446997.06247       -49.01647        43.660
  24192730.29145 127133639.57345      -633.10245        40.918    24192730.52941
  99065195.14141      -493.32841        30.946
  20403174.75449 107219453.39549       887.93849        48.434    20403175.04547
  83547643.92547       691.89547        44.843
  21680210.23348 113930351.66948     -2277.12548        46.434    21680209.52245
  88776936.86445     -1774.38745        39.646
  20955190.83648 110120326.33748      1473.90248        47.605    20955191.06546
  85808074.15646      1148.49246        42.414
  24504808.52544 128773619.48544     -1824.89144        37.696    24504813.69243
 100343106.43243     -1422.00043        35.955
  24860733.38845 130644031.40545      3424.27045        39.605    24860736.05248
 101800556.19748      2668.25848        47.550
  21610638.32848 113564719.98748     -2798.58248        47.269    21610638.56246
  88492001.23846     -2180.71546        42.347
 21  5 25  1 20 30.0000000  0 11G 5G10G13G15G16G18G20G23G26G27G29
  23735961.86846 124733408.79746     -3178.90646        42.358    23735962.31949
  97194909.44649     -2477.07449        48.224
  23385176.80246 122889957.44846      2650.28946        42.213    23385180.28144
  95758428.64444      2065.15644        38.731
  22304986.28348 117213535.56848     -1522.55548        45.735    22304985.58743
  91335253.30643     -1186.41043        36.058
  20623212.13449 108375785.12049       -84.47749        48.441    20623212.08447
  84448717.08147       -65.82847        43.985
  24196395.22245 127152898.67445      -650.58245        40.540    24196395.71241
  99080202.22541      -506.94941        31.213
  20398132.25249 107192954.83849       878.62949        48.435    20398132.65547
  83526995.69347       684.64547        44.806
  21693226.77748 113998753.99948     -2282.95348        46.637    21693226.04445
  88830237.36745     -1778.92645        39.704
  20946808.70248 110076278.60948      1462.55548        47.546    20946809.17746
  85773751.26946      1139.64846        42.469
  24515254.54544 128828513.44844     -1835.50444        37.492    24515259.71242
 100385880.94442     -1430.26642        34.053
  24841201.18844 130541388.76244      3417.98844        38.179    24841204.03249
 101720574.94949      2663.36349        47.961
  21626653.22948 113648880.17948     -2812.19148        47.222    21626653.99046
  88557580.56746     -2191.32046        42.045
 21  5 25  1 21  0.0000000  0 11G 5G10G13G15G16G18G20G23G26G27G29
  23754112.04646 124828787.56246     -3179.87146        42.196    23754112.30549
  97269230.53749     -2477.82449        47.896
  23370065.68046 122810547.95746      2643.66446        43.123    23370069.37144
  95696551.16044      2059.99644        36.846
  22313731.97447 117259494.56247     -1541.50447        45.545    22313731.30844
  91371065.49344     -1201.17644        36.864
  20623756.09649 108378643.62449      -106.10249        48.378    20623755.91947
  84450944.49547       -82.68047        43.775
  24200160.53045 127172685.47845      -668.07045        40.663    24200160.87942
  99095620.50042      -520.57842        33.932
  20393143.69049 107166739.94549       869.18849        48.431    20393144.19847
  83506568.50847       677.28547        45.369
  21706276.19748 114067329.12048     -2288.62948        46.958    21706275.37244
  88883672.50544     -1783.35244        37.920
  20938491.73248 110032573.40948      1451.08248        47.428    20938492.47346
  85739695.30446      1130.71146        42.571
  24525758.98845 128883714.04945     -1845.19945        39.964    24525764.33741
 100428894.32241     -1437.82041        31.092
  24821705.13344 130438937.56144      3411.71944        37.740    24821708.24548
 101640742.93348      2658.48048        46.532
  21642746.00248 113733447.93448     -2825.64848        47.350    21642746.83546
  88623477.49046     -2201.80946        41.884
 21  5 25  1 21 30.0000000  0 11G 5G10G13G15G16G18G20G23G26G27G29
  23772268.19646 124924198.71146     -3181.09846        42.105    23772268.52849
  97343576.84649     -2478.78149        47.940
  23354991.98847 122731335.37247      2636.96947        43.651    23354995.40944
  95634827.11544      2054.77744        37.652
  22322585.47747 117306021.09247     -1560.33647        44.601    22322585.06943
  91407319.92943     -1215.84843        35.752
  20624423.95849 108382152.74349      -127.87149        48.742    20624423.73847
  84453678.88047       -99.64547        43.886
  24204026.12945 127192998.60545      -685.93845        40.655    24204026.35242
  99111448.89442      -534.50042        33.684
  20388209.35649 107140809.81349       859.68849        48.586    20388209.95647
  83486363.20647       669.88347        44.944
  21719358.23948 114136075.76848     -2294.44548        46.230    21719357.33245
  88937241.30945     -1787.88345        39.804
  20930240.15649 109989210.69749      1439.70749        47.943    20930240.82146
  85705906.18646      1121.84846        42.371
  24536321.39945 128939218.55645     -1855.00845        39.611    24536326.16743
 100472144.57043     -1445.46543        35.949
  24802246.57445 130336680.62045      3405.33245        39.862    24802249.13947
 101561062.12547      2653.50447        45.208
  21658916.07348 113818421.14848     -2839.20748        47.261    21658916.44846
  88689690.36246     -2212.37146        42.204
 21  5 25  1 22  0.0000000  0 11G 5G10G13G15G16G18G20G23G26G27G29
  23790430.63046 125019640.88946     -3181.68846        43.038    23790430.46648
  97417947.37848     -2479.23848        46.536
  23339955.95446 122652320.16646      2630.68846        43.146    23339959.07944
  95573256.86244      2049.88344        38.113
  22331546.60747 117353113.87847     -1579.31647        45.005    22331546.37843
  91444015.59243     -1230.64143        35.561
  20625215.72749 108386312.46349      -149.41049        48.888    20625215.46347
  84456920.22747      -116.42647        43.660
  24207991.79745 127213836.60245      -703.38745        40.374    24207991.51342
  99127686.27442      -548.09842        33.230
  20383329.43249 107115165.54849       850.07049        48.361    20383330.10947
  83466380.65747       662.39147        45.009
  21732472.69648 114204992.86648     -2300.08248        45.963    21732471.89145
  88990942.92645     -1792.27345        39.714
  20922053.77749 109946190.41949      1428.43049        47.792    20922054.47746
  85672383.91646      1113.05946        42.952
  24546941.23844 128995024.42644     -1865.32044        38.554    24546945.78541
 100515629.61841     -1453.50041        32.032
  24782824.46743 130234620.26743      3398.82043        35.748    24782827.92248
 101481534.67148      2648.43048        47.410
  21675162.61848 113903797.57448     -2852.53548        46.992    21675163.13346
  88756217.41446     -2222.75846        42.360
 21  5 25  1 22 30.0000000  0 11G 5G10G13G15G16G18G20G23G26G27G29
  23808598.30546 125115113.06646     -3182.83246        42.641    23808597.99348
  97492341.27148     -2480.13348        47.009
  23324957.19247 122573502.82547      2624.00447        43.413    23324960.51644
  95511840.79544      2044.67644        38.267
  22340615.43648 117400770.81048     -1598.12548        45.684    22340615.09443
  91481150.86143     -1245.29743        35.885
  20626131.20949 108391122.47549      -171.03949        48.789    20626130.90847
  84460668.29347      -133.28147        43.889
  24212056.68045 127235197.99645      -720.78945        40.440    24212056.53541
  99144331.50141      -561.65641        30.610
  20378504.06849 107089808.29149       840.37149        48.411    20378504.87948
  83446621.75348       654.83248        45.573
  21745619.39448 114274078.96248     -2305.67648        46.148    21745618.50744
  89044776.24044     -1796.63344        38.759
  20913932.38148 109903512.48748      1416.98048        47.632    20913932.97046
  85639128.39646      1104.13746        42.227
  24557617.90745 129051128.91045     -1875.10545        40.570    24557622.48444
 100559347.38444     -1461.12544        36.853
  24763440.97345 130132759.49245      3391.89545        39.463    24763444.17648
 101402162.69148      2643.03148        46.150
  21691485.56548 113989575.10348     -2865.88748        47.212    21691486.23246
  88823057.02346     -2233.16046        42.112
 21  5 25  1 23  0.0000000  0 11G 5G10G13G15G16G18G20G23G26G27G29
  23826771.50046 125210613.64146     -3183.79346        43.018    23826771.01348
  97566757.27648     -2480.87948        46.814
  23309996.40146 122494883.79346      2617.35246        43.165    23309999.83444
  95450579.26844      2039.49244        38.665
  22349791.30447 117448990.06347     -1616.64547        45.112    22349790.79943
  91518724.28843     -1259.72743        35.652
  20627170.23249 108396582.17749      -192.83649        48.697    20627169.87247
  84464922.61347      -150.26647        43.881
  24216220.87745 127257081.20545      -738.18445        40.830    24216220.96642
  99161383.33042      -575.21142        32.518
  20373733.56949 107064739.06749       830.76249        48.401    20373734.23347
  83427087.28947       647.34447        45.068
  21758798.01048 114343333.00948     -2311.32848        46.186    21758796.96944
  89098740.42744     -1801.03944        38.791
  20905876.18148 109861176.82748      1405.45348        47.656    20905876.55046
  85606139.58546      1095.15646        41.892
  24568350.81245 129107529.32245     -1885.38345        39.405    24568354.82743
 100603295.71943     -1469.13343        36.583
  24744095.94044 130031100.94044      3385.36744        37.040    24744098.33346
 101322948.23246      2637.94546        43.304
  21707884.47848 114075751.53348     -2879.12548        47.604    21707884.95446
  88890207.46046     -2243.47746        41.188
 21  5 25  1 23 30.0000000  0 11G 5G10G13G15G16G18G20G23G26G27G29
  23844949.78146 125306141.21346     -3184.94146        42.220    23844949.26248
  97641194.35248     -2481.77748        46.120
  23295073.69447 122416463.56247      2610.57847        43.734    23295076.92144
  95389472.64144      2034.21544        37.789
  22359073.85947 117497770.26747     -1635.17647        45.350    22359073.33343
  91556734.83643     -1274.16843        35.338
  20628332.80949 108402691.25549      -214.55949        48.779    20628332.36947
  84469682.93447      -167.19147        44.070
  24220484.52445 127279484.86545      -755.43445        41.095    24220484.08741
  99178840.73441      -588.65241        27.255
  20369018.06449 107039959.02049       821.22749        48.578    20369018.53147
  83407778.17547       639.91447        44.429
  21772008.40048 114412753.88248     -2316.65248        46.352    21772007.44845
  89152834.60245     -1805.18845        39.027
  20897885.13949 109819183.39449      1394.11749        48.079    20897885.37546
  85573417.44046      1086.32046        41.740
  24579139.25645 129164223.01845     -1894.14845        39.769    24579143.11841
 100647472.57741     -1475.96541        31.056
  24724789.82245 129929647.10645      3377.93445        40.530    24724792.12949
 101243893.31849      2632.15249        48.386
  21724359.01848 114162324.50148     -2892.34448        47.171    21724358.78846
  88957666.91346     -2253.77746        41.812
 21  5 25  1 24  0.0000000  0 11G 5G10G13G15G16G18G20G23G26G27G29
  23863132.91846 125401694.79646     -3185.58646        41.983    23863133.01748
  97715651.65148     -2482.27748        47.679
  23280188.73147 122338242.53047      2604.14547        43.959    23280191.80344
  95328521.23144      2029.19944        38.674
  22368462.89447 117547109.70447     -1653.86347        45.350    22368462.62043
  91595181.13943     -1288.69143        35.338
  20629618.77149 108409449.60149      -236.01649        48.442    20629618.41347
  84474949.18047      -183.91047        44.031
  24224846.27845 127302407.62245      -772.87945        39.099    24224846.12143
  99196702.58443      -602.25043        35.215
  20364357.87349 107015469.27649       811.47349        48.651    20364358.11547
  83388695.25547       632.31247        44.680
  21785250.35548 114482340.15848     -2322.21148        46.411    21785249.34044
  89207057.67544     -1809.52044        38.100
  20889959.22448 109777532.10848      1382.54348        47.767    20889959.31646
  85540961.89946      1077.30546        42.214
  24589982.85144 129221207.32444     -1904.31244        38.821    24589987.03042
 100691875.88842     -1483.88742        33.716
  24705523.66645 129828400.78045      3370.90645        39.253    24705525.98448
 101165000.14248      2626.67648        47.120
  21740908.22648 114249291.84048     -2905.46948        47.064    21740908.16145
  89025433.63645     -2264.00445        41.110
 21  5 25  1 24 30.0000000  0 11G 5G10G13G15G16G18G20G23G26G27G29
  23881320.96346 125497273.56746     -3186.02046        41.686    23881321.09949
  97790128.57449     -2482.61749        47.882
  23265341.86047 122260221.17547      2597.40247        43.776    23265344.75144
  95267725.42244      2023.94544        37.271
  22377958.00647 117597006.44147     -1672.48047        45.208    22377957.74743
  91634061.71743     -1303.23443        35.361
  20631028.09049 108416856.75649      -257.69949        48.643    20631027.92547
  84480720.98847      -200.80947        43.552
  24229306.32045 127325847.44845      -789.91045        39.395    24229306.24942
  99214967.42742      -615.51642        34.175
  20359753.10849 106991270.91849       801.68049        48.651    20359753.15747
  83369839.40547       624.68447        45.073
  21798523.43348 114552090.77248     -2327.76248        46.444    21798522.29144
  89261408.79044     -1813.84444        37.065
  20882098.31549 109736222.81249      1371.27049        48.035    20882098.17746
  85508772.84846      1068.52046        42.357
  24600881.16943 129278479.53343     -1913.81243        35.714    24600886.00443
 100736503.53743     -1491.28543        35.639
  24686297.09644 129727364.47144      3363.91444        38.649    24686298.98944
 101086270.55444      2621.23044        38.053
  21757532.14648 114336651.08448     -2918.49248        46.908    21757532.01746
  89093505.75246     -2274.15246        41.660
 21  5 25  1 25  0.0000000  0 11G 5G10G13G15G16G18G20G23G26G27G29
  23899513.43046 125592875.41646     -3187.24646        41.961    23899513.26148
  97864623.53548     -2483.57048        47.626
  23250532.82147 122182399.92147      2590.58647        43.899    23250535.95844
  95207085.53644      2018.63744        37.343
  22387558.85148 117647458.70948     -1690.87148        45.752    22387558.26342
  91673375.16542     -1317.56642        33.004
  20632560.83249 108424912.13249      -279.22349        48.275    20632561.01347
  84486997.90647      -217.57847        44.436
  24233864.68345 127349802.94345      -806.99645        39.840    24233864.36342
  99233634.03542      -628.83242        34.169
  20355203.98049 106967365.02749       792.02749        48.802    20355203.89947
  83351211.45447       617.16047        44.427
  21811827.57648 114622004.67448     -2333.09848        46.106    21811826.36544
  89315887.14444     -1818.00044        38.222
  20874302.54149 109695255.46649      1359.87549        48.009    20874302.37746
  85476850.25846      1059.64146        42.968
  24611833.50844 129336036.88244     -1922.87144        36.766    24611838.52843
 100781353.41943     -1498.34043        35.248
  24667111.06144 129626541.02944      3357.38344        37.737    24667113.29946
 101007706.84646      2616.14146        41.390
  21774230.43748 114424400.21548     -2931.47748        47.545    21774230.22046
  89161881.67446     -2284.27046        41.389
 21  5 25  1 25 30.0000000  0 11G 5G10G13G15G16G18G20G23G26G27G29
  23917709.90746 125688499.46046     -3187.93446        41.981    23917710.10449
  97939135.73549     -2484.10549        47.914
  23235762.08047 122104779.19247      2583.84047        44.074    23235765.35444
  95146601.91044      2013.37944        37.710
  22397265.10247 117698464.78747     -1709.35547        45.333    22397264.51543
  91713120.15443     -1331.93443        35.286
  20634216.90449 108433615.37349      -300.92649        48.108    20634217.42747
  84493779.66347      -234.49247        44.157
  24238521.35845 127374272.87245      -824.30145        39.574    24238520.98043
  99252701.45843      -642.31643        34.616
  20350710.74149 106943752.73349       782.09449        48.777    20350710.58047
  83332812.27647       609.42247        44.619
  21825162.64448 114692080.48648     -2338.48848        46.341    21825161.53944
  89370491.66144     -1822.20344        38.765
  20866571.84248 109654629.92948      1348.48848        47.777    20866571.69346
  85445194.01246      1050.76646        42.460
  24622840.60843 129393892.71343     -1932.84843        36.442    24622845.12044
 100826444.35444     -1506.11744        38.260
  24647965.64145 129525933.05445      3349.93045        39.305    24647968.26141
 100929311.13541      2610.33241        29.801
  21791002.47748 114512536.89348     -2944.35248        47.347    21791002.10146
  89230559.59246     -2294.30546        41.755
 21  5 25  1 26  0.0000000  0 11G 5G10G13G15G16G18G20G23G26G27G29
  23935910.87646 125784144.61746     -3188.59046        42.553    23935910.83448
  98013664.43648     -2484.61748        47.128
  23221029.61547 122027359.40247      2577.28147        44.168    23221033.11444
  95086274.86144      2008.27044        37.671
  22407076.36148 117750022.52748     -1727.65248        45.674    22407075.68543
  91753295.01343     -1346.22743        36.184
  20635996.19349 108442965.86949      -322.41049        48.568    20635996.81247
  84501065.76647      -251.23047        43.892
  24243275.41744 127399255.53844      -840.93444        38.609    24243275.08843
  99272168.46443      -655.27343        35.090
  20346273.56349 106920435.11349       772.31249        48.716    20346273.22547
  83314642.71547       601.79747        44.506
  21838528.13148 114762316.87648     -2343.94948        45.843    21838526.95944
  89425221.30544     -1826.45744        38.082
  20858906.03649 109614346.10949      1337.03549        48.070    20858906.01946
  85413804.03746      1041.84446        42.549
  24633900.08644 129452012.36444     -1942.02044        37.763    24633904.92641
 100871732.31541     -1513.26241        30.157
  24628862.39545 129425543.33145      3342.71145        39.070    24628864.82243
 100851085.37143      2604.70743        36.211
  21807847.49148 114601058.50248     -2957.18048        46.803    21807847.34746
  89299537.44146     -2304.30146        41.819
 21  5 25  1 26 30.0000000  0 11G 5G10G13G15G16G18G20G23G26G27G29
  23954115.15646 125879809.22046     -3189.24246        41.353    23954115.33848
  98088208.26348     -2485.12948        47.699
  23206335.50147 121950140.97247      2570.57447        44.394    23206339.06244
  95026104.70944      2003.04344        37.528
  22416992.18747 117802130.56647     -1746.11747        45.423    22416991.58044
  91793898.68944     -1360.61344        36.969
  20637898.62249 108452963.02449      -344.12549        48.433    20637899.15347
  84508855.75947      -268.15247        44.005
  24248126.67745 127424749.01245      -858.39145        40.000    24248126.53442
  99292033.46942      -668.88342        34.307
  20341892.68049 106897413.31049       762.47749        48.682    20341892.23847
  83296703.65847       594.13347        44.836
  21851923.96248 114832712.72148     -2349.16448        45.721    21851922.76544
  89480075.20644     -1830.52044        38.386
  20851305.06848 109574403.83748      1325.82048        47.120    20851305.34946
  85382680.19846      1033.10546        42.215
  24645013.12644 129510408.95344     -1950.87144        36.748    24645017.44343
 100917236.05043     -1520.17243        35.252
  24609800.57445 129325374.40145      3335.40645        39.073    24609803.66043
 100773031.71643      2599.01643        35.989
  21824765.52248 114689963.34748     -2969.90248        47.296    21824765.08945
  89368813.93645     -2314.21145        40.374
 21  5 25  1 27  0.0000000  0 11G 5G10G13G15G16G18G20G23G26G27G29
  23972323.06246 125975492.62046     -3189.78546        42.226    23972323.32948
  98162766.71548     -2485.55148        47.196
  23191679.68247 121873124.36647      2563.96147        44.093    23191683.06745
  94966091.81545      1997.88745        38.998
  22427012.12947 117854786.89047     -1764.23847        45.116    22427012.02043
  91834929.57443     -1374.75043        35.178
  20639924.05249 108463606.27849      -365.52049        48.681    20639924.34247
  84517149.21447      -284.82447        44.260
  24253074.82945 127450751.93145      -875.23045        39.992    24253074.26441
  99312295.51641      -682.00041        31.884
  20337568.30949 106874688.40149       752.53949        48.794    20337567.69247
  83278995.95047       586.39147        44.911
  21865349.95348 114903266.75348     -2354.32048        46.194    21865349.20744
  89535052.36144     -1834.53944        38.775
  20843769.13549 109534803.02949      1314.23449        47.805    20843769.46246
  85351822.44446      1024.07446        42.195
  24656177.66244 129569079.86944     -1960.12144        38.574    24656182.04743
 100962953.58343     -1527.37543        36.546
  24590781.32844 129225429.10644      3327.47344        36.920    24590784.87743
 100695152.27743      2592.83243        34.509
  21841755.85748 114779248.53648     -2982.52048        46.705    21841755.52446
  89438386.78746     -2324.04346        41.973
 21  5 25  1 27 30.0000000  0 11G 5G10G13G15G16G18G20G23G26G27G29
  23990534.23246 126071193.36546     -3190.10246        41.220    23990534.46248
  98237338.71048     -2485.79748        47.644
  23177062.29247 121796309.93247      2556.83647        44.358    23177065.72244
  94906236.47344      1992.33644        37.927
  22437136.03047 117907989.57747     -1782.59847        45.223    22437136.26143
  91876386.20143     -1389.03943        35.153
  20642072.35449 108474895.14749      -387.08249        48.743    20642072.32047
  84525945.73347      -301.62547        43.582
  24258119.21644 127477262.59444      -892.41844        38.507    24258118.85542
  99332953.14342      -695.39542        33.982
  20333300.58849 106852261.48849       742.51249        48.684    20333300.06447
  83261520.43347       578.57847        45.099
  21878805.73248 114973978.07948     -2359.75448        45.642    21878805.28144
  89590152.09144     -1838.77344        38.523
  20836298.27349 109495543.53449      1303.01649        47.983    20836298.39446
  85321230.63646      1015.33246        41.904
  24667394.29644 129628022.27444     -1969.07044        37.516    24667399.03043
 101008882.72643     -1534.34443        35.880
  24571805.48145 129125709.96045      3320.42645        40.388    24571808.20544
 100617449.10644      2587.34444        37.733
  21858818.37748 114868912.34348     -2995.02748        46.965    21858818.06446
  89508254.66146     -2333.78946        41.550
 21  5 25  1 28  0.0000000  0 11G 5G10G13G15G16G18G20G23G26G27G29
  24008748.22746 126166910.33946     -3190.79346        41.385    24008748.80248
  98311923.31448     -2486.33648        46.648
  23162483.50547 121719698.10347      2550.17247        43.816    23162486.78744
  94846538.98244      1987.14544        37.770
  22447363.82947 117961736.52447     -1800.66447        44.851    22447363.95943
  91918266.93043     -1403.11743        36.300
  20644343.40549 108486829.04249      -408.69149        48.604    20644343.04347
  84535244.88047      -318.46547        43.883
  24263260.71545 127504279.35745      -909.27345        39.823    24263260.46442
  99354005.12842      -708.52742        34.008
  20329089.80649 106830133.70149       732.60949        48.735    20329089.45547
  83244278.01147       570.85947        45.369
  21892291.12647 115044845.56947     -2364.82047        45.270    21892290.81044
  89645373.51344     -1842.71944        37.869
  20828892.34749 109456625.20749      1291.53549        47.820    20828892.44446
  85290904.68246      1006.38746        41.980
  24678661.89445 129687233.50745     -1978.13345        39.201    24678666.31343
 101055021.27743     -1541.40643        36.058
  24552873.54444 129026219.91944      3312.63344        38.229    24552875.89942
 100539924.38242      2581.26642        32.694
  21875952.22648 114958952.00148     -3007.51648        46.935    21875952.21846
  89578415.39746     -2343.52346        41.578
 21  5 25  1 28 30.0000000  0 11G 5G10G13G15G16G18G20G23G26G27G29
  24026965.37146 126262641.97546     -3191.12146        41.330    24026965.75148
  98386519.40548     -2486.59048        46.845
  23147943.33047 121643289.26147      2543.96147        43.680    23147946.74645
  94786999.66345      1982.30545        39.014
  22457694.89147 118016026.13047     -1818.52347        44.764    22457694.66043
  91960570.51743     -1417.03543        34.706
  20646736.98049 108499407.20649      -429.98849        48.499    20646736.47247
  84545046.06147      -335.05947        43.821
  24268498.06645 127531799.98845      -926.00045        39.216    24268497.43842
  99375449.77742      -721.56242        33.349
  20324936.10749 106808306.14549       722.57849        48.788    20324935.92147
  83227269.52747       563.04347        44.956
  21905806.01548 115115867.93848     -2369.82848        45.602    21905805.75944
  89700715.61344     -1846.62144        38.231
  20821551.49448 109418047.91548      1280.23048        47.743    20821551.33146
  85260844.46846       997.57846        42.827
  24689980.18744 129746710.80444     -1987.09444        38.774    24689984.37044
 101101367.18944     -1548.38744        37.270
  24533984.51045 128926961.36845      3304.70345        39.577    24533987.43044
 100462580.13244      2575.09044        38.276
  21893157.35848 115049365.40848     -3020.05148        46.869    21893157.15746
  89648867.39446     -2353.28946        41.390
 21  5 25  1 29  0.0000000  0 11G 5G10G13G15G16G18G20G23G26G27G29
  24045185.32845 126358387.53245     -3191.64145        40.906    24045185.51748
  98461126.33448     -2486.99648        46.822
  23133441.93447 121567083.81547      2536.86747        44.258    23133445.07745
  94727618.83545      1976.77745        38.936
  22468128.61747 118070856.46547     -1836.46547        45.031    22468128.55443
  92003295.45643     -1431.01643        35.538
  20649252.96749 108512629.00249      -451.39549        48.558    20649252.42247
  84555348.76747      -351.73847        43.634
  24273830.62944 127559823.07744      -942.55544        38.769    24273829.76341
  99397285.91241      -734.46141        30.906
  20320839.75749 106786779.92849       712.46949        48.726    20320839.51547
  83210495.85547       555.16847        44.603
  21919350.24247 115187044.14447     -2375.26247        45.031    21919350.48745
  89756177.58445     -1850.85545        39.380
  20814275.39549 109379811.45749      1269.00049        48.120    20814275.17146
  85231049.84146       988.82846        42.132
  24701348.42545 129806451.34845     -1995.90645        39.397    24701352.58942
 101147918.23242     -1555.25442        33.095
  24515141.81345 128827937.30245      3296.93045        40.933    24515144.59943
 100385418.50443      2569.03143        36.228
  21910433.07748 115140150.43248     -3032.28148        47.209    21910433.00846
  89719608.93146     -2362.82046        41.265
 21  5 25  1 29 30.0000000  0 11G 5G10G13G15G16G18G20G23G26G27G29
  24063407.50345 126454145.62645     -3192.01245        41.069    24063407.61848
  98535743.00748     -2487.28548        47.650
  23118979.20747 121491082.18047      2529.83647        44.772    23118982.29644
  94668396.82344      1971.29744        38.043
  22478665.04247 118126225.31547     -1854.63347        44.501    22478664.96944
  92046439.98944     -1445.17244        37.277
  20651891.31549 108526493.61549      -472.84449        48.377    20651890.88147
  84566152.36747      -368.45347        43.623
  24279258.51945 127588347.08945      -959.24645        39.034    24279257.64141
  99419512.46441      -747.46541        29.716
  20316800.98349 106765556.12849       702.34449        48.954    20316800.58147
  83193957.82847       547.27747        44.372
  21932923.71847 115258372.93447     -2380.06647        45.376    21932923.77044
  89811758.46344     -1854.60244        37.637
  20807064.06849 109341915.68249      1257.60549        47.855    20807063.90846
  85201520.67646       979.94946        42.584
  24712766.25844 129866452.53144     -2004.37544        37.087    24712770.01242
 101194672.32342     -1561.85542        32.665
  24496341.38344 128729133.04044      3288.81644        37.674    24496345.16541
 100308434.60341      2562.71541        30.531
  21927778.99848 115231303.92348     -3044.49648        46.554    21927778.83946
  89790637.61246     -2372.33646        41.134
 21  5 25  1 30  0.0000000  0 11G 5G10G13G15G16G18G20G23G26G27G29
  24081631.76145 126549914.97945     -3192.69145        40.640    24081631.84748
  98610368.46248     -2487.81648        46.003
  23104555.28247 121415284.67747      2523.45747        44.498    23104558.73744
  94609333.87844      1966.32844        38.349
  22489303.54847 118182130.91347     -1872.27747        45.392    22489303.46443
  92090002.78943     -1458.92243        35.716
  20654651.84549 108541000.43049      -494.22749        48.632    20654651.59547
  84577456.38347      -385.11347        43.749
  24284781.08844 127617370.31644      -975.54744        38.109    24284781.32642
  99442127.91042      -760.16842        33.607
  20312820.00149 106744635.88049       692.21149        48.905    20312819.44647
  83177656.32847       539.38347        44.688
  21946526.11147 115329853.10647     -2385.12547        44.997    21946525.97844
  89867457.30344     -1858.54344        38.330
  20799917.47748 109304360.41248      1246.09048        47.656    20799917.28946
  85172256.84046       970.97746        42.645
  24724232.83345 129926711.43945     -2013.30145        38.937    24724237.52641
 101241627.25441     -1568.80941        30.080
  24477592.86546 128630585.80746      3280.77746        41.379    24477591.74244
 100231644.41044      2556.44544        37.783
  21945194.60648 115322823.95748     -3056.76248        46.665    21945194.63145
  89861951.88345     -2381.89545        40.766
 21  5 25  1 30 30.0000000  0 11G 5G10G13G15G16G18G20G23G26G27G29
  24099857.75646 126645694.60246     -3192.74646        41.281    24099858.24447
  98685001.88647     -2487.85547        45.426
  23090170.37247 121339691.73247      2516.14147        44.841    23090174.09144
  94550430.35944      1960.62944        37.327
  22500044.02647 118238571.44047     -1890.24247        45.441    22500043.50243
  92133982.42543     -1472.91843        34.557
  20657534.50349 108556148.78449      -515.63749        48.755    20657534.32247
  84589260.29647      -401.79747        43.459
  24290398.84845 127646890.62345      -992.13745        40.232    24290398.65041
  99465130.73941      -773.09441        29.754
  20308897.07149 106724020.30549       682.10549        48.811    20308896.45447
  83161592.23447       531.50847        44.987
  21960157.10348 115401483.67248     -2390.01248        46.037    21960156.78144
  89923273.33144     -1862.35244        38.110
  20792835.66649 109267145.49849      1234.87549        47.877    20792835.51246
  85143258.23046       962.23846        42.884
  24735748.03244 129987225.32544     -2021.38344        37.155    24735752.62441
 101288780.87641     -1575.10941        31.314
  24458884.13544 128532280.84844      3272.86344        37.752    24458886.20944
 100155043.27544      2550.28544        36.743
  21962679.64348 115414708.46848     -3068.83648        47.274    21962679.94345
  89933550.16145     -2391.30545        40.365
 21  5 25  1 31  0.0000000  0 11G 5G10G13G15G16G18G20G23G26G27G29
  24118086.13645 126741483.54945     -3193.16045        41.008    24118086.12448
  98759642.62948     -2488.18048        47.215
  23075824.64747 121264303.69347      2509.85247        44.562    23075827.82445
  94491686.43745      1955.72745        38.898
  22510885.80047 118295544.63647     -1907.84447        45.271    22510885.01344
  92178377.11944     -1486.63344        37.864
  20660539.05649 108571937.84649      -536.93449        48.323    20660538.85147
  84601563.46547      -418.39547        43.860
  24296110.84345 127676906.34545     -1008.48445        40.575    24296110.52741
  99488519.59941      -785.83641        29.985
  20305032.34649 106703710.53149       671.77349        48.925    20305031.59947
  83145766.41647       523.45747        44.939
  21973816.46548 115473263.56548     -2395.26248        45.890    21973816.19644
  89979205.70344     -1866.44144        38.183
  20785818.73549 109230270.76649      1223.43449        48.113    20785818.54246
  85114524.69946       953.32046        43.195
  24747311.28444 130047991.43444     -2030.00444        37.501    24747316.25741
 101336131.06541     -1581.82841        31.918
  24440223.83445 128434221.13845      3264.78545        39.559    24440224.80042
 100078633.06842      2543.98042        33.524
  21980233.64848 115506954.42448     -3080.77748        46.286    21980233.59845
  90005430.12445     -2400.60945        40.327
 21  5 25  1 31 30.0000000  0 11G 5G10G13G15G16G18G20G23G26G27G29
  24136315.79945 126837280.63645     -3193.35945        40.345    24136315.68348
  98834289.68548     -2488.33648        46.285
  23061517.68947 121189120.93447      2502.54347        44.437    23061520.89844
  94433102.51844      1950.03144        38.484
  22521828.55847 118353048.42647     -1925.82047        45.013    22521827.85643
  92223185.27043     -1500.64143        35.838
  20663665.36649 108588366.64749      -558.26649        48.577    20663665.20547
  84614365.13747      -435.01647        43.704
  24301916.38244 127707415.50444     -1025.24244        38.800    24301915.72741
  99512293.00341      -798.89541        30.269
  20301225.94949 106683707.60149       661.66849        48.948    20301225.01847
  83130179.70747       515.58247        44.817
  21987504.02047 115545191.45747     -2400.01647        45.464    21987503.68544
  90035253.42644     -1870.14544        38.735
  20778866.44249 109193735.97349      1212.17249        48.124    20778866.17546
  85086056.04346       944.54746        42.775
  24758922.28144 130109007.04344     -2038.02044        37.785    24758927.63741
 101383675.58941     -1588.07441        30.404
  24421610.28545 128336409.30145      3255.96145        39.870    24421612.26345
 100002416.12545      2537.10945        39.104
  21997855.77148 115599559.89048     -3092.80548        46.403    21997856.01446
  90077590.20846     -2409.98046        41.534
 21  5 25  1 32  0.0000000  0 11G 5G10G13G15G16G18G20G23G26G27G29
  24154546.71245 126933084.33445     -3193.37545        40.632    24154546.50748
  98908941.91148     -2488.34848        47.009
  23047250.06047 121114143.76447      2495.78147        44.525    23047253.32644
  94374678.80144      1944.76244        38.570
  22532871.65147 118411080.85847     -1943.37547        45.015    22532871.47843
  92268405.32843     -1514.32043        36.442
  20666913.22349 108605434.34949      -579.52049        48.627    20666912.97147
  84627664.65347      -451.57847        43.991
  24307815.18744 127738416.29444     -1041.62944        38.826    24307815.12941
  99536449.41841      -811.66041        30.628
  20297478.08949 106664012.69349       651.35249        48.724    20297477.23947
  83114833.01247       507.54347        45.339
  22001219.20747 115617266.11847     -2404.80947        45.330    22001219.27944
  90091415.48944     -1873.87944        38.519
  20771978.75849 109157540.95249      1200.76249        47.944    20771978.45246
  85057852.15846       935.65646        42.976
  24770579.81844 130170279.28544     -2046.00844        37.724    24770586.44442
 101431405.32542     -1594.30942        33.590
  24403044.64245 128238848.00145      3247.36345        39.348    24403047.50042
  99926394.41842      2530.41042        34.142
  22015546.19848 115692522.42048     -3104.68848        46.838    22015546.53346
  90150028.51746     -2419.23846        41.555
 21  5 25  1 32 30.0000000  0 11G 5G10G13G15G16G18G20G23G26G27G29
  24172778.95546 127028893.74246     -3193.68046        41.224    24172778.31148
  98983598.58548     -2488.58648        45.978
  23033021.49147 121039372.61547      2489.17647        44.100    23033024.73744
  94316415.63244      1939.61344        38.379
  22544014.99347 118469639.68147     -1960.57447        44.578    22544015.05843
  92314035.56543     -1527.72343        36.079
  20670282.45649 108623140.41249      -600.87149        48.340    20670282.25046
  84641461.59146      -468.21546        43.257
  24313807.64844 127769906.75144     -1057.73044        38.830    24313808.04442
  99560987.42742      -824.20742        32.822
  20293788.99349 106644626.88149       640.97349        48.824    20293788.44047
  83099727.18247       499.45747        45.070
  22014962.22647 115689486.65847     -2409.74647        45.329    22014962.40844
  90147691.21044     -1877.72744        38.207
  20765155.62949 109121685.48049      1189.44149        47.942    20765155.41546
  85029912.84746       926.83646        42.981
  24782285.33144 130231785.37544     -2054.18444        37.010    24782290.52644
 101479332.06444     -1600.67644        37.667
  24384527.59645 128141540.01445      3239.39845        40.526    24384529.62841
  99850570.01341      2524.20341        31.253
  22033303.95348 115785839.71448     -3116.50048        46.795    22033304.54146
  90222743.26946     -2428.44546        41.549
 21  5 25  1 33  0.0000000  0 11G 5G10G13G15G16G18G20G23G26G27G29
  24191011.64446 127124707.74146     -3194.02046        41.353    24191011.29448
  99058258.82248     -2488.84848        46.214
  23018832.19947 120964807.80647      2482.03947        44.639    23018835.11944
  94258313.20844      1934.05544        38.418
  22555258.17247 118528723.33047     -1978.28947        44.939    22555258.14443
  92360074.76143     -1541.52743        36.182
  20673772.93749 108641483.66149      -622.01249        48.644    20673772.93447
  84655755.03247      -484.68847        43.396
  24319893.12045 127801885.59445     -1074.21545        39.214    24319893.44241
  99585905.97841      -837.05541        27.160
  20290158.93249 106625551.27849       630.64549        48.730    20290158.80847
  83084863.07347       491.40647        45.290
  22028732.78247 115761852.02047     -2414.66447        45.358    22028732.97444
  90204079.77044     -1881.55944        37.507
  20758396.97149 109086169.33949      1178.16449        47.879    20758397.10447
  85002237.95747       918.04747        43.397
  24794035.45144 130293532.55144     -2062.20344        38.221    24794039.89542
 101527446.72342     -1606.91842        33.014
  24366059.14945 128044488.01845      3230.76245        40.427    24366061.28144
  99774945.10344      2517.47344        36.831
  22051128.55648 115879508.94948     -3128.12148        46.386    22051128.97845
  90295732.25845     -2437.50045        40.795
 21  5 25  1 33 30.0000000  0 11G 5G10G13G15G16G18G20G23G26G27G29
  24209244.87145 127220525.26945     -3193.89545        40.651    24209244.87548
  99132921.78448     -2488.75848        46.791
  23004682.29247 120890449.71347      2475.06647        43.928    23004685.48245
  94200371.88645      1928.62145        39.347
  22566600.65247 118588329.38847     -1995.60947        44.879    22566600.58742
  92406521.07142     -1555.02342        33.818
  20677384.70649 108660463.31949      -643.29349        48.696    20677384.76047
  84670544.38047      -501.27047        43.784
  24326070.77845 127834350.18245     -1090.70745        39.547    24326071.14541
  99611203.07441      -849.90641        27.691
  20286588.20149 106606787.00649       620.27749        48.821    20286588.26847
  83070241.56047       483.32847        45.273
  22042530.76147 115834361.09047     -2419.37147        45.438    22042530.92944
  90260580.32044     -1885.22744        37.203
  20751702.83248 109050992.33648      1166.86748        47.714    20751703.17946
  84974827.33246       909.24246        42.756
  24805830.70244 130355517.99744     -2070.10544        38.016    24805835.23042
 101575747.00342     -1613.07442        33.307
  24347639.64745 127947694.68445      3221.98045        38.941    24347642.72442
  99699521.80542      2510.63342        33.766
  22069019.82648 115973527.68648     -3139.73848        47.057    22069020.01245
  90368993.60145     -2446.55145        40.937
 21  5 25  1 34  0.0000000  0 11G 5G10G13G15G16G18G20G23G26G27G29
  24227478.83146 127316345.32346     -3194.32846        41.431    24227478.68848
  99207586.76248     -2489.09048        46.991
  22990571.75347 120816298.60247      2468.21147        45.069    22990574.88744
  94142591.84444      1923.27744        37.828
  22578042.32547 118648455.86647     -2012.99247        44.886    22578042.49543
  92453372.85643     -1568.57043        35.491
  20681117.33949 108680078.43949      -664.40249        48.324    20681117.35447
  84685828.89547      -517.71947        43.982
  24332340.72644 127867298.94644     -1106.18444        38.637    24332341.31341
  99636877.39841      -861.96941        31.772
  20283076.95649 106588335.17449       609.85549        48.893    20283077.20048
  83055863.51548       475.20748        45.617
  22056356.06447 115907012.97347     -2424.18047        45.143    22056356.07345
  90317192.15445     -1888.97345        38.989
  20745073.19648 109016154.20248      1155.73848        47.715    20745073.72546
  84947680.75046       900.57046        42.600
  24817671.11644 130417738.89544     -2077.52344        36.889    24817675.42944
 101624230.78244     -1618.85244        37.605
  24329270.89345 127851162.88645      3213.54345        39.614    24329272.58543
  99624302.16943      2504.05543        34.487
  22086976.98548 116067893.80348     -3151.38348        46.345    22086977.34645
  90442525.60545     -2455.62545        40.376
 21  5 25  1 34 30.0000000  0 11G 5G10G13G15G16G18G20G23G26G27G29
  24245713.22346 127412166.83346     -3194.14846        41.802    24245713.03348
  99282252.82548     -2488.94948        45.910
  22976500.69848 120742354.86648      2461.20348        45.658    22976503.68544
  94084973.40244      1917.81644        37.732
  22589582.68747 118709100.40547     -2030.19547        45.046    22589582.72843
  92500628.35443     -1581.97343        35.484
  20684970.67649 108700327.91449      -685.58249        48.150    20684970.78847
  84701607.71047      -534.22347        44.155
  24338702.94445 127900730.05545     -1122.32445        40.124    24338703.03942
  99662927.59042      -874.54342        33.526
  20279625.27749 106570196.86149       599.34849        48.808    20279625.78448
  83041729.77748       467.02048        45.681
  22070208.39847 115979806.47947     -2428.68847        45.358    22070208.11144
  90373914.34044     -1892.48844        38.145
  20738508.22048 108981654.74848      1144.27748        47.764    20738508.63246
  84920798.08246       891.64146        42.896
  24829555.55744 130480192.45944     -2085.95344        37.309    24829560.04343
 101672895.90743     -1625.42243        35.063
  24310951.33245 127754895.11145      3204.56245        40.868    24310953.83943
  99549288.42443      2497.05943        34.835
  22104999.87348 116162604.80348     -3162.74248        46.422    22105000.10345
  90516326.36045     -2464.47745        40.674
 21  5 25  1 35  0.0000000  0 11G 5G10G13G15G16G18G20G23G26G27G29
  24263947.55045 127507989.01245     -3194.14845        40.293    24263947.37848
  99356919.44848     -2488.94948        47.106
  22962469.21947 120668618.77947      2454.39847        45.484    22962471.96445
  94027516.73545      1912.51645        38.899
  22601221.17547 118770261.15947     -2047.31247        44.993    22601221.22543
  92548286.08743     -1595.31243        35.271
  20688944.54249 108721210.86449      -706.72349        48.712    20688944.69046
  84717880.13546      -550.69546        43.323
  24345156.17745 127934641.15845     -1138.12545        39.113    24345156.37441
  99689351.77541      -886.85541        30.579
  20276233.46449 106552373.17349       588.77749        48.499    20276234.24048
  83027841.19648       458.78548        46.130
  22084087.29648 116052740.00348     -2433.41048        45.806    22084086.95644
  90430745.61344     -1896.16844        38.213
  20732007.73649 108947493.71949      1133.04349        48.281    20732007.87246
  84894179.11546       882.88746        42.463
  24841483.71844 130542875.84644     -2093.34044        37.838    24841488.46943
 101721739.98343     -1631.18043        36.017
  24292683.12945 127658894.28445      3195.50845        39.244    24292685.40944
  99474482.58544      2490.00444        36.976
  22123087.99348 116257658.09448     -3174.13348        46.223    22123088.12946
  90590393.85446     -2473.35246        41.748
 21  5 25  1 35 30.0000000  0 11G 5G10G13G15G16G18G20G23G26G27G29
  24282181.46045 127603810.20645     -3193.87545        40.230    24282181.58148
  99431585.28848     -2488.73848        46.792
  22948477.44247 120595090.72647      2447.41047        45.098    22948480.35445
  93970222.20445      1907.07445        39.590
  22612957.47047 118831935.80847     -2064.32447        44.769    22612957.48144
  92596344.23944     -1608.56644        36.810
  20693038.90849 108742726.26349      -727.64549        48.670    20693038.78646
  84734645.39346      -567.00046        43.102
  24351700.39745 127969030.46645     -1154.32045        40.204    24351700.45642
  99716148.59742      -899.48042        32.394
  20272901.83649 106534865.26349       578.33249        48.782    20272902.66648
  83014198.67848       450.64548        45.758
  22097992.77147 116125813.02447     -2438.05147        45.551    22097992.00844
  90487685.59444     -1899.78144        37.130
  20725571.65149 108913670.88349      1121.80149        48.363    20725571.58346
  84867823.66446       874.12946        43.037
  24853455.11344 130605786.22844     -2101.08244        38.416    24853459.60543
 101770761.04043     -1637.21143        35.899
  24274466.35946 127563163.03646      3186.50046        41.596    24274468.04943
  99399886.82843      2482.98443        35.766
  22141240.44548 116353051.19748     -3185.38348        45.920    22141240.75945
  90664726.10945     -2482.12145        40.345
 21  5 25  1 36  0.0000000  0 11G 5G10G13G15G16G18G20G23G26G27G29
  24300414.97845 127699629.55245     -3193.71545        40.632    24300415.53148
  99506249.67948     -2488.61348        45.776
  22934525.23547 120521770.98547      2440.45347        45.104    22934527.84544
  93913089.97944      1901.64844        38.421
  22624791.10147 118894122.16347     -2081.27747        44.883    22624791.01043
  92644801.13743     -1621.77743        35.230
  20697253.39749 108764872.87449      -748.71949        48.690    20697253.06147
  84751902.49847      -583.42247        43.746
  24358335.35845 128003896.04545     -1170.24245        39.683    24358335.24041
  99743316.55541      -911.87941        25.926
  20269630.53249 106517674.19649       567.78149        48.821    20269631.26348
  83000803.04848       442.42248        46.009
  22111924.56648 116199024.42448     -2442.68848        45.663    22111923.62143
  90544733.41243     -1903.39543        36.291
  20719199.84049 108880185.95549      1110.50449        48.231    20719199.74447
  84841731.51947       865.32447        43.785
  24865468.98444 130668920.76644     -2108.13744        37.057    24865473.72042
 101819956.71342     -1642.71542        32.554
  24256301.07845 127467704.01545      3177.50445        40.951    24256302.19543
  99325503.20543      2475.97343        35.720
  22159457.08348 116448781.49648     -3196.67248        46.065    22159457.26945
  90739321.12745     -2490.91845        39.773
 21  5 25  1 36 30.0000000  0 11G 5G10G13G15G16G18G20G23G26G27G29
  24318648.11445 127795446.03945     -3193.69545        40.200    24318648.90947
  99580911.83847     -2488.59847        45.398
  22920612.82047 120448659.84847      2433.58647        44.918    22920615.15044
  93856120.30244      1896.29744        38.579
  22636721.70447 118956817.99347     -2098.43047        43.953    22636721.73443
  92693655.03943     -1635.14543        36.056
  20701587.78949 108787649.91549      -769.75849        48.602    20701587.55747
  84769650.85547      -599.81647        43.417
  24365060.62645 128039235.79445     -1186.22345        40.026    24365060.26242
  99770853.98842      -924.33242        34.237
  20266419.69349 106500801.07249       557.09449        48.688    20266420.27848
  82987655.16548       434.09848        45.928
  22125882.62848 116272372.93248     -2447.19548        46.355    22125881.22144
  90601888.08644     -1906.91044        36.957
  20712892.17149 108847038.67949      1099.27749        48.260    20712892.03946
  84815902.48246       856.57846        43.184
  24877525.20044 130732276.65844     -2115.59444        38.084    24877529.70341
 101869324.94241     -1648.52041        30.558
  24238188.40846 127372520.05846      3168.38346        41.988    24238189.58843
  99251333.90143      2468.86743        34.821
  22177737.98148 116544847.06648     -3207.68848        45.726    22177738.00545
  90814177.40345     -2499.50045        39.797
 21  5 25  1 37  0.0000000  0 11G 5G10G13G15G16G18G20G23G26G27G29
  24336880.69445 127891258.38845     -3193.64845        40.252    24336881.35548
  99655570.80048     -2488.55948        47.400
  22906739.88947 120375757.72447      2426.34847        44.268    22906742.00944
  93799313.49044      1890.65644        38.217
  22648748.68347 119020021.18347     -2115.36347        44.059    22648748.91243
  92742904.26443     -1648.34043        34.748
  20706041.75849 108811056.18749      -790.66849        48.414    20706041.74947
  84787889.50947      -616.10947        44.012
  24371875.49045 128075047.75945     -1201.43045        40.646    24371874.67943
  99798759.39243      -936.18443        34.837
  20263269.53349 106484246.98749       546.57449        48.761    20263270.14048
  82974755.88648       425.89848        45.779
  22139866.42347 116345857.84047     -2451.76247        45.357    22139864.93145
  90659149.04445     -1910.46945        38.957
  20706648.68749 108814228.83849      1088.02349        48.148    20706648.67647
  84790336.38647       847.80947        43.885
  24889623.42144 130795851.16744     -2122.87144        36.719    24889627.66042
 101918863.45942     -1654.19142        33.839
  24220128.34745 127277613.84445      3159.02745        39.882    24220129.93143
  99177381.02943      2461.57843        35.180
  22196081.68748 116641244.90348     -3218.71548        46.139    22196081.83645
  90889292.57045     -2508.09445        40.629
 21  5 25  1 37 30.0000000  0 11G 5G10G13G15G16G18G20G23G26G27G29
  24355112.14745 127987065.65745     -3193.50445        40.056    24355112.94648
  99730225.81648     -2488.44948        45.653
  22892906.61447 120303064.77047      2419.53947        45.408    22892909.24844
  93742669.70644      1885.35244        37.864
  22660872.02647 119083729.41447     -2131.88347        45.127    22660871.88743
  92792547.05243     -1661.21143        34.883
  20710615.16449 108835090.30649      -811.60949        48.569    20710615.40247
  84806617.39447      -632.42647        43.749
  24378779.82945 128111329.73445     -1216.87545        40.526    24378778.90541
  99827031.06441      -948.21941        30.527
  20260180.33249 106468013.08649       535.65249        48.899    20260181.02648
  82962106.09648       417.38748        45.905
  22153875.76047 116419477.51847     -2456.35547        45.472    22153874.42244
  90716515.00344     -1914.04744        37.332
  20700469.33949 108781756.16949      1076.71149        48.161    20700469.45546
  84765033.01146       838.99246        43.255
  24901762.36144 130859641.32544     -2130.23044        37.658    24901766.49142
 101968570.00542     -1659.92242        33.040
  24202121.26745 127182987.98645      3149.27345        39.567    24202123.13343
  99103646.61243      2453.97743        35.935
  22214488.27548 116737972.43048     -3229.78948        45.781    22214488.72245
  90964664.62845     -2516.72345        39.399
 21  5 25  1 38  0.0000000  0 11G 5G10G13G15G16G18G20G23G26G27G29
  24373342.71545 128082867.32945     -3193.29745        38.900    24373343.79748
  99804876.41048     -2488.28548        46.730
  22879113.42948 120230581.39648      2412.59848        45.599    22879116.19044
  93686189.19244      1879.94144        38.482
  22673091.26447 119147940.63047     -2148.86747        44.543    22673090.96343
  92842581.74843     -1674.44543        35.167
  20715307.97049 108859751.55849      -832.47349        48.596    20715308.26747
  84825833.94647      -648.68447        43.518
  24385772.99345 128148080.11545     -1232.84045        39.548    24385772.05141
  99855667.69641      -960.65641        28.129
  20257152.27449 106452100.42749       525.14549        48.831    20257152.97248
  82949706.62848       409.19948        46.403
  22167910.61047 116493231.53847     -2460.62147        45.123    22167909.50544
  90773985.66544     -1917.37144        37.003
  20694354.00548 108749620.36248      1065.68048        47.772    20694354.03846
  84739992.12846       830.39846        43.010
  24913941.80743 130923644.34643     -2136.80943        35.807    24913946.02642
 102018442.41242     -1665.05142        33.806
  24184167.69945 127088645.25745      3139.81645        39.371    24184170.24543
  99030132.84343      2446.60543        34.888
  22232957.65448 116835027.60048     -3240.60248        45.716    22232957.89145
  91040292.04145     -2525.14845        40.036
 21  5 25  1 38 30.0000000  0 10G 5G10G13G15G16G18G20G23G27G29
  24391571.95445 128178662.04245     -3193.06245        39.793    24391572.24847
  99879521.64347     -2488.10547        44.981
  22865360.08147 120158307.83447      2405.37547        45.249    22865362.61544
  93629872.19244      1874.32044        38.672
  22685405.69847 119212652.42047     -2165.37147        44.935    22685405.30943
  92893006.53643     -1687.30543        34.655
  20720119.95149 108885038.45249      -853.33649        48.769    20720119.96046
  84845538.02046      -664.94146        43.109
  24392854.51044 128185296.35044     -1247.93444        38.536    24392853.48643
  99884667.33143      -972.41443        35.348
  20254185.60249 106436510.13349       514.34449        48.987    20254186.21048
  82937558.34948       400.78548        45.948
  22181970.71547 116567118.72047     -2465.07847        44.979    22181969.85844
  90831560.08144     -1920.84444        38.085
  20688302.56048 108717821.13448      1054.38348        47.725    20688302.71747
  84715213.52847       821.59447        43.360
  24166269.03545 126994588.42345      3130.46545        39.834    24166272.20443
  98956841.84843      2439.32043        35.233
  22251488.22748 116932407.41748     -3251.43848        46.100    22251488.77345
  91116172.38145     -2533.59045        39.956
 21  5 25  1 39  0.0000000  0 10G 5G10G13G15G16G18G20G23G27G29
  24409799.37145 128274448.47745     -3192.79345        39.746    24409799.84848
  99954160.40848     -2487.89548        45.867
  22851646.85947 120086244.43447      2398.78947        44.878    22851649.31045
  93573718.90745      1869.18445        39.829
  22697814.80347 119277862.57447     -2181.94547        44.838    22697814.23742
  92943819.63442     -1700.21942        33.343
  20725050.86349 108910949.78849      -874.10949        48.636    20725050.41947
  84865728.68247      -681.12947        43.541
  24400024.84245 128222976.21245     -1263.96545        39.267    24400023.53341
  99914028.25341      -984.89841        31.190
  20251280.44049 106421243.26849       503.40249        48.803    20251280.94748
  82925662.08848       392.25848        45.991
  22196056.08547 116641138.05847     -2469.49247        44.917    22196055.33943
  90889237.48643     -1924.28143        36.198
  20682315.14548 108686358.19648      1043.27048        47.595    20682315.45246
  84690696.96646       812.93446        43.302
  24148425.46445 126900820.15445      3121.11345        40.651    24148428.53843
  98883775.68043      2432.03143        35.779
  22270080.26948 117030109.53248     -3262.11348        45.840    22270080.96846
  91192303.87446     -2541.91046        41.354
 21  5 25  1 39 30.0000000  0 10G 5G10G13G15G16G18G20G23G27G29
  24428025.06745 128370226.01245     -3192.47345        41.046    24428025.51247
 100028792.23447     -2487.64547        45.011
  22837973.78947 120014391.41047      2391.65247        45.440    22837976.33245
  93517729.57145      1863.62145        39.769
  22710318.22847 119343568.77547     -2198.40247        44.313    22710317.67542
  92995019.26542     -1713.04342        33.248
  20730100.38549 108937484.55349      -894.93049        48.627    20730099.82247
  84886405.12347      -697.35247        43.431
  24407282.79245 128261117.78145     -1279.44545        39.759    24407282.17242
  99943748.88342      -996.97742        33.582
  20248436.98449 106406300.93549       492.60249        48.731    20248437.51148
  82914018.70848       383.84448        46.221
  22210166.26347 116715288.33747     -2473.59847        44.551    22210165.57444
  90947016.91444     -1927.48044        38.340
  20676391.87249 108655231.28749      1031.90249        47.976    20676392.15846
  84666442.24746       804.07846        42.442
  24130637.74744 126807343.28044      3110.93444        38.836    24130640.73744
  98810936.56644      2424.10244        37.703
  22288733.67648 117128131.58348     -3272.57448        45.883    22288734.26745
  91268684.68045     -2550.06245        40.658
 21  5 25  1 40  0.0000000  0 10G 5G10G13G15G16G18G20G23G27G29
  24446249.43745 128465993.51445     -3192.12545        40.170    24446249.60547
 100103416.22747     -2487.37547        45.483
  22824340.64047 119942749.04447      2384.61347        44.836    22824343.45245
  93461904.39645      1858.13745        40.538
  22722915.67647 119409768.99747     -2214.84447        44.354    22722915.24343
  93046603.83143     -1725.85543        34.722
  20735268.10849 108964641.35049      -915.69549        48.376    20735267.59746
  84907566.25746      -713.53146        43.222
  24414628.34545 128299718.92545     -1294.25445        39.818    24414628.45941
  99973827.69141     -1008.50841        31.201
  20245655.49749 106391684.26949       481.78949        48.795    20245656.06348
  82902629.09948       375.41848        46.248
  22224301.41347 116789568.63547     -2478.17247        45.228    22224300.49644
  91004897.65044     -1931.04744        38.226
  20670532.53949 108624440.08049      1020.78949        48.158    20670532.73046
  84642449.10746       795.41846        42.934
  24112905.53346 126714160.32346      3101.30946        41.544    24112908.41443
  98738326.50643      2416.60243        36.576
  22307447.13648 117226471.10848     -3283.37148        46.097    22307447.84945
  91345312.83745     -2558.47345        40.870
 21  5 25  1 40 30.0000000  0 10G 5G10G13G15G16G18G20G23G27G29
  24464471.30244 128561750.33944     -3191.58244        37.629    24464471.59148
 100178031.92548     -2486.95348        45.565
  22810747.70047 119871317.65347      2377.63347        44.870    22810750.54045
  93406243.61845      1852.69945        40.128
  22735606.67547 119476460.80947     -2231.27347        44.540    22735605.86242
  93098571.47142     -1738.65642        34.056
  20740554.01849 108992418.88349      -936.33649        48.746    20740553.31946
  84929211.08946      -729.61746        42.909
  24422061.11445 128338777.44245     -1309.40645        39.546    24422060.59742
 100004262.88342     -1020.32042        33.284
  20242936.22849 106377394.33649       470.82849        48.936    20242936.74348
  82891494.07348       366.87548        45.683
  22238461.22647 116863977.96247     -2482.48847        45.328    22238460.01344
  91062878.95844     -1934.41044        36.885
  20664737.03949 108593984.29049      1009.67649        47.909    20664736.93546
  84618717.32946       786.75846        43.209
  24095230.41846 126621274.15446      3091.25046        41.395    24095233.02244
  98665947.69144      2408.76244        37.115
  22326220.17047 117325125.20047     -3293.80947        44.749    22326220.85845
  91422186.11445     -2566.60545        39.293
 21  5 25  1 41  0.0000000  0 10G 5G10G13G15G16G18G20G23G27G29
  24482690.88945 128657495.07045     -3191.04745        39.235    24482691.25448
 100252638.21948     -2486.53948        46.865
  22797194.98348 119800097.47448      2370.57048        45.641    22797197.34945
  93350747.42345      1847.19545        39.366
  22748390.81747 119543641.77047     -2247.47747        44.295    22748389.86043
  93150920.27343     -1751.28543        35.905
  20745957.80849 109020815.98949      -956.86749        48.659    20745957.07446
  84951338.71646      -745.61346        43.097
  24429580.29444 128378291.23544     -1324.45744        38.808    24429580.01341
 100035052.82441     -1032.04741        31.188
  20240279.36149 106363432.21949       459.97749        49.064    20240279.57748
  82880614.49248       358.42248        45.885
  22252645.16247 116938515.27647     -2486.73847        44.781    22252643.82443
  91120959.97243     -1937.72343        35.082
  20659005.22649 108563863.59649       998.45749        47.858    20659004.98546
  84595246.67146       778.01646        42.896
  24077612.10345 126528687.45345      3081.57045        40.220    24077614.11343
  98593802.19443      2401.21943        36.548
  22345053.24548 117424091.51148     -3304.03148        46.406    22345053.52245
  91499302.71945     -2574.57445        40.423
 21  5 25  1 41 30.0000000  0 10G 5G10G13G15G16G18G20G23G27G29
  24500908.22344 128753226.94344     -3190.66844        37.370    24500908.43348
 100327234.47348     -2486.23848        45.743
  22783682.52848 119729088.73648      2363.33248        46.298    22783684.71744
  93295415.97344      1841.55544        38.315
  22761267.76847 119611309.65647     -2263.57047        44.855    22761266.73843
  93203648.46243     -1763.82443        34.701
  20751479.05649 109049831.34249      -977.43849        48.048    20751478.41347
  84973948.07647      -761.64547        43.643
  24437185.72845 128418257.94745     -1339.56245        39.997    24437185.59241
 100066195.68341     -1043.81641        30.602
  20237685.17749 106349799.04349       448.98449        49.121    20237685.11048
  82869991.22948       349.85548        45.619
  22266853.25547 117013179.59447     -2491.05547        45.222    22266851.81543
  91179139.97243     -1941.08643        35.512
  20653337.11449 108534077.69449       987.16049        47.934    20653336.92647
  84572036.88447       769.21147        43.653
  24060050.73445 126436402.79845      3071.10945        40.982    24060052.77743
  98521892.11543      2393.07443        35.619
  22363944.85548 117523367.37148     -3314.39548        46.004    22363945.13245
  91576660.49145     -2582.64845        39.939
 21  5 25  1 42  0.0000000  0 10G 5G10G13G15G16G18G20G23G27G29
  24519122.69744 128848945.07044     -3190.60544        38.758    24519123.25047
 100401820.01347     -2486.18847        45.297
  22770210.42347 119658291.75947      2356.25847        45.143    22770212.40645
  93240249.52945      1836.04345        39.786
  22774236.69347 119679462.09247     -2279.81247        44.013    22774235.82843
  93256754.25343     -1776.48043        35.224
  20757117.67349 109079463.24549      -998.08249        48.407    20757117.30547
  84997037.86547      -777.73047        43.432
  24444876.94945 128458675.71145     -1354.65245        40.599    24444877.14242
 100097689.99842     -1055.58642        34.072
  20235153.78149 106336495.86549       437.84049        49.201    20235153.60148
  82859625.10548       341.17248        45.858
  22281085.36847 117087969.74747     -2495.01247        45.090    22281084.09044
  91237417.98744     -1944.16844        38.627
  20647732.65649 108504626.24049       976.25049        47.936    20647732.58047
  84549087.70347       760.71147        43.609
  24042547.50045 126344423.06745      3060.69545        39.391    24042549.64843
  98450219.59743      2384.95343        35.495
  22382894.92647 117622950.44347     -3324.49647        45.408    22382895.41545
  91654257.68045     -2590.52045        39.551
 21  5 25  1 42 30.0000000  0 10G 5G10G13G15G16G18G20G23G27G29
  24537334.30945 128944648.54845     -3189.84845        39.735    24537334.51348
 100476394.16548     -2485.59848        45.837
  22756778.38947 119587706.74347      2349.22747        45.227    22756780.49745
  93185248.25445      1830.56245        39.806
  22787297.34447 119748096.66847     -2295.87147        43.826    22787296.93142
  93310235.71442     -1788.99242        32.910
  20762873.70049 109109710.78749     -1018.46549        48.642    20762873.60547
  85020607.38147      -793.61347        43.521
  24452653.60845 128499542.06145     -1369.77745        39.711    24452653.61242
 100129533.90942     -1067.36342        33.224
  20232685.31249 106323523.77449       426.84449        49.164    20232685.08947
  82849516.97447       332.60247        45.337
  22295341.03247 117162884.97047     -2499.28947        45.061    22295340.34143
  91295793.45343     -1947.50043        36.394
  20642191.90449 108475508.95749       965.00849        48.024    20642191.94447
  84526398.92447       751.94947        43.906
  24025102.30346 126252750.82846      3050.66446        41.355    24025104.72543
  98378786.73243      2377.13743        35.792
  22401902.76848 117722837.80048     -3334.53148        46.436    22401903.01744
  91732091.95144     -2598.34044        38.661
 21  5 25  1 43  0.0000000  0 10G 5G10G13G15G16G18G20G23G27G29
  24555543.33145 129040336.24645     -3189.28145        39.457    24555543.50148
 100550955.95948     -2485.15648        46.089
  22743386.57547 119517333.92847      2342.34447        45.085    22743389.03445
  93130412.35145      1825.19945        39.802
  22800449.10847 119817210.97847     -2311.79347        43.639    22800448.74943
  93364091.00243     -1801.39843        35.881
  20768746.59249 109140572.43549     -1038.94949        48.366    20768746.64947
  85044655.42147      -809.57447        43.770
  24460515.57545 128540854.75545     -1384.52745        40.075    24460515.24941
 100161725.51841     -1078.85941        31.721
  20230279.94849 106310883.86549       415.76249        49.053    20230279.77247
  82839667.69147       323.96947        45.463
  22309620.54547 117237924.34547     -2503.44547        44.958    22309620.01643
  91354265.68543     -1950.73843        35.907
  20636714.59149 108446725.48149       953.86349        47.891    20636714.70247
  84503970.25147       743.26647        43.707
  24007716.88045 126161388.95845      3040.09845        40.322    24007718.62644
  98307595.64944      2368.90244        37.494
  22420968.12248 117823026.83448     -3344.49648        45.578    22420968.33845
  91810161.30845     -2606.10545        40.279
 21  5 25  1 43 30.0000000  0 10G 5G10G13G15G16G18G20G23G27G29
  24573748.82645 129136007.32845     -3188.29745        39.360    24573749.38747
 100625504.83647     -2484.39147        45.451
  22730035.52648 119447173.66548      2334.90648        45.918    22730037.86544
  93075742.03644      1819.40244        38.603
  22813691.91147 119886802.78147     -2327.50847        44.507    22813691.61043
  93418318.36143     -1813.64543        34.820
  20774735.86949 109172046.65049     -1059.36749        47.948    20774735.88447
  85069180.78147      -825.48447        43.952
  24468461.61245 128582611.72945     -1399.53145        38.995    24468461.14542
 100194263.41742     -1090.54742        32.232
  20227938.08049 106298577.24049       404.70349        49.077    20227937.84447
  82830078.10747       315.35247        45.489
  22323923.59747 117313086.72747     -2507.43047        44.684    22323922.76043
  91412833.77843     -1953.84443        36.273
  20631300.72749 108418275.46649       942.80549        48.162    20631300.93246
  84481801.41846       734.64846        43.059
  23990390.77846 126070340.04946      3029.80546        41.635    23990392.76243
  98236648.50143      2360.88343        35.561
  22440090.51648 117923515.23248     -3354.53148        45.921    22440090.85345
  91888463.93645     -2613.92245        40.206
 21  5 25  1 44  0.0000000  0 10G 5G10G13G15G16G18G20G23G27G29
  24591950.90045 129231661.01445     -3187.75445        39.202    24591951.37248
 100700040.14548     -2483.96948        45.835
  22716724.93647 119377226.07547      2328.03547        45.417    22716727.37245
  93021237.45345      1814.05145        40.521
  22827025.31047 119956869.49647     -2343.44147        44.111    22827024.90343
  93472915.78543     -1826.06243        35.527
  20780841.46249 109204132.07349     -1079.85549        48.155    20780841.26847
  85094182.42047      -841.44947        43.713
  24476491.85545 128624810.25345     -1413.99645        39.086    24476491.40541
 100227145.34041     -1101.82041        32.007
  20225659.87949 106286604.96149       393.46149        49.164    20225659.51447
  82820749.06547       306.59047        45.404
  22338249.66847 117388371.05547     -2511.43847        44.165    22338249.19043
  91471496.85543     -1956.96943        35.986
  20625950.20549 108390158.57549       931.60249        47.850    20625950.42147
  84459892.16147       725.92247        44.152
  23973125.30146 125979606.86746      3019.20746        41.523    23973126.54143
  98165947.33343      2352.62543        35.301
  22459269.35148 118024300.71748     -3364.55948        45.719    22459269.89845
  91966998.05545     -2621.73845        39.930
 21  5 25  1 44 30.0000000  0 10G 5G10G13G15G16G18G20G23G27G29
  24610150.03645 129327295.88545     -3187.61745        39.006    24610150.43348
 100774560.81048     -2483.85948        45.822
  22703454.90148 119307491.45948      2320.95348        46.114    22703457.21445
  92966898.80845      1808.53145        39.448
  22840448.61847 120027408.87947     -2359.11347        44.797    22840448.20942
  93527881.51942     -1838.27342        33.996
  20787063.15949 109236827.29549     -1100.00849        48.462    20787062.87946
  85119659.21346      -857.15246        43.104
  24484605.48644 128667448.27144     -1429.01644        37.620    24484605.70743
 100260369.72043     -1113.53143        35.949
  20223445.37549 106274968.08449       382.19149        49.094    20223444.91248
  82811681.37248       297.80948        45.666
  22352599.00047 117463776.75947     -2515.62547        44.375    22352598.56144
  91530254.53044     -1960.23044        38.561
  20620663.08649 108362374.48349       920.55149        47.854    20620663.26947
  84438242.23047       717.30947        44.133
  23955919.76145 125889192.01545      3008.53545        40.636    23955921.33843
  98095494.26543      2344.30943        36.297
  22478504.07448 118125379.69148     -3374.26248        45.752    22478504.47945
  92045760.86545     -2629.29745        39.233
 21  5 25  1 45  0.0000000  0 10G 5G10G13G15G16G18G20G23G27G29
  24628345.66944 129422911.31644     -3186.60544        38.085    24628345.72648
 100849066.33548     -2483.07448        46.836
  22690225.38347 119237970.00447      2313.89547        45.205    22690228.09846
  92912726.28546      1803.03146        41.229
  22853961.21947 120098418.40847     -2374.86347        43.843    22853960.91043
  93583213.58843     -1850.54743        34.699
  20793400.65549 109270130.46849     -1120.30549        48.632    20793400.38547
  85145609.73347      -872.96947        43.356
  24492802.49045 128710523.54345     -1443.16045        39.840    24492802.44442
 100293934.85542     -1124.54342        32.680
  20221294.99249 106263667.70049       371.03949        49.176    20221294.39947
  82802875.88247       289.11747        45.243
  22366970.98547 117539302.58847     -2519.48447        44.424    22366970.43243
  91589105.80443     -1963.23843        36.266
  20615439.27649 108334922.80749       909.56649        48.029    20615439.40847
  84416851.32547       708.75047        43.837
  23938775.70346 125799098.28446      2997.64546        41.420    23938776.70143
  98025291.37343      2335.82443        36.654
  22497794.32348 118226750.38348     -3383.82048        45.607    22497794.25545
  92124751.00645     -2636.74645        40.292
 21  5 25  1 45 30.0000000  0 10G 5G10G13G15G16G18G20G23G27G29
  24646536.59745 129518506.81745     -3185.94945        40.841    24646537.12948
 100923556.27148     -2482.56248        46.646
  22677036.48548 119168661.96248      2306.64148        45.721    22677039.04345
  92858720.05345      1797.37945        39.434
  22867562.89847 120169895.34147     -2390.26247        44.115    22867562.34042
  93638909.87642     -1862.54342        34.410
  20799853.62349 109304040.55549     -1140.48449        48.650    20799853.41847
  85172033.18347      -888.69147        43.538
  24501082.26445 128754033.65545     -1457.52745        39.833    24501082.00341
 100327838.81841     -1135.73841        29.816
  20219208.91049 106252704.87849       359.75449        49.207    20219208.22047
  82794333.42247       280.32447        45.456
  22381365.65447 117614947.65847     -2523.56247        43.847    22381364.81743
  91648050.00143     -1966.41443        35.700
  20610278.72249 108307803.18149       898.32449        48.100    20610278.69247
  84395719.16247       699.98847        43.802
  23921692.39745 125709328.24445      2986.84045        39.050    23921694.50744
  97955340.82144      2327.41444        37.382
  22517139.32047 118328410.21447     -3393.66847        44.547    22517138.77845
  92203966.44245     -2644.41845        38.975
 21  5 25  1 46  0.0000000  0 10G 5G10G13G15G16G18G20G23G27G29
  24664723.40345 129614080.99545     -3184.64545        39.630    24664724.02247
 100998029.62347     -2481.54347        44.364
  22663888.03247 119099567.51547      2299.68847        45.307    22663890.89545
  92804880.29045      1791.96145        40.162
  22881253.02147 120241837.46647     -2405.76247        43.798    22881252.28842
  93694968.65742     -1874.62142        34.162
  20806421.69849 109338555.73749     -1160.62149        48.501    20806421.54546
  85198928.13646      -904.38346        43.167
  24509444.26045 128797976.46545     -1472.00045        39.250    24509443.73941
 100362079.95541     -1147.01641        26.921
  20217187.27149 106242080.70049       348.46549        49.330    20217186.56948
  82786054.84948       271.52748        45.647
  22395783.05047 117690711.23747     -2527.44547        44.530    22395782.09244
  91707086.53844     -1969.44144        36.980
  20605181.28549 108281015.30849       887.33249        48.426    20605181.15246
  84374845.49646       691.42646        43.105
  23904671.65046 125619884.72046      2975.98446        41.919    23904673.84843
  97885644.57143      2318.94543        35.006
  22536538.94047 118430356.26047     -3402.89147        45.322    22536538.12845
  92283404.90145     -2651.60545        39.214
 21  5 25  1 46 30.0000000  0 10G 5G10G13G15G16G18G20G23G27G29
  24682906.61944 129709633.19244     -3184.50844        37.680    24682907.03747
 101072485.88547     -2481.44147        44.679
  22650780.30547 119030686.89547      2292.41047        45.135    22650783.51945
  92751207.12445      1786.28945        39.959
  22895031.22047 120314242.84347     -2421.34447        43.567    22895030.46043
  93751388.40343     -1886.76643        34.615
  20813104.56449 109373674.50849     -1180.64549        48.655    20813104.20047
  85226293.42347      -919.98447        43.407
  24517887.89145 128842349.55145     -1486.41445        39.810    24517887.95843
 100396656.34043     -1158.24643        34.850
  20215230.21249 106231796.23849       337.12549        49.235    20215229.64148
  82778040.98648       262.69148        45.567
  22410222.75747 117766591.83947     -2531.26247        44.554    22410221.72843
  91766214.28743     -1972.41443        35.605
  20600146.94149 108254558.77449       876.37149        48.619    20600146.65947
  84354230.02047       682.88347        43.682
  23887713.86046 125530770.33646      2965.08246        41.890    23887715.81143
  97816204.84943      2310.45343        35.476
  22555992.44047 118532585.65447     -3412.28147        44.614    22555992.09345
  92363064.15645     -2658.92245        38.906
